{"crs": {"type": "name", "properties": {"name": "urn:ogc:def:crs:EPSG::4326"}}, "type": "FeatureCollection", "features": [{"geometry": {"type": "Point", "coordinates": [6.641, 50.5382]}, "type": "Feature", "properties": {"COAST_TYPE": 3, "MOUNT_TYPE": 4, "NAME_LATN": "Euskirchen", "CNTR_CODE": "DE", "FID": "DEA28", "NUTS_ID": "DEA28", "NUTS_NAME": "Euskirchen", "LEVL_CODE": 3, "URBN_TYPE": 2}, "id": "DEA28"}, {"geometry": {"type": "Point", "coordinates": [6.1717, 51.0525]}, "type": "Feature", "properties": {"COAST_TYPE": 3, "MOUNT_TYPE": 4, "NAME_LATN": "Heinsberg", "CNTR_CODE": "DE", "FID": "DEA29", "NUTS_ID": "DEA29", "NUTS_NAME": "Heinsberg", "LEVL_CODE": 3, "URBN_TYPE": 2}, "id": "DEA29"}, {"geometry": {"type": "Point", "coordinates": [7.5224, 51.0215]}, "type": "Feature", "properties": {"COAST_TYPE": 3, "MOUNT_TYPE": 4, "NAME_LATN": "Oberbergischer Kreis", "CNTR_CODE": "DE", "FID": "DEA2A", "NUTS_ID": "DEA2A", "NUTS_NAME": "Oberbergischer Kreis", "LEVL_CODE": 3, "URBN_TYPE": 2}, "id": "DEA2A"}, {"geometry": {"type": "Point", "coordinates": [7.1917, 51.022]}, "type": "Feature", "properties": {"COAST_TYPE": 3, "MOUNT_TYPE": 4, "NAME_LATN": "Rheinisch-Bergischer Kreis", "CNTR_CODE": "DE", "FID": "DEA2B", "NUTS_ID": "DEA2B", "NUTS_NAME": "Rheinisch-Bergischer Kreis", "LEVL_CODE": 3, "URBN_TYPE": 1}, "id": "DEA2B"}, {"geometry": {"type": "Point", "coordinates": [7.2626, 50.7726]}, "type": "Feature", "properties": {"COAST_TYPE": 3, "MOUNT_TYPE": 4, "NAME_LATN": "Rhein-Sieg-Kreis", "CNTR_CODE": "DE", "FID": "DEA2C", "NUTS_ID": "DEA2C", "NUTS_NAME": "Rhein-Sieg-Kreis", "LEVL_CODE": 3, "URBN_TYPE": 1}, "id": "DEA2C"}, {"geometry": {"type": "Point", "coordinates": [6.2155, 50.7581]}, "type": "Feature", "properties": {"COAST_TYPE": 3, "MOUNT_TYPE": 4, "NAME_LATN": "St\u00e4dteregion Aachen", "CNTR_CODE": "DE", "FID": "DEA2D", "NUTS_ID": "DEA2D", "NUTS_NAME": "St\u00e4dteregion Aachen", "LEVL_CODE": 3, "URBN_TYPE": 1}, "id": "DEA2D"}, {"geometry": {"type": "Point", "coordinates": [6.912, 51.5631]}, "type": "Feature", "properties": {"COAST_TYPE": 3, "MOUNT_TYPE": 4, "NAME_LATN": "Bottrop, Kreisfreie Stadt", "CNTR_CODE": "DE", "FID": "DEA31", "NUTS_ID": "DEA31", "NUTS_NAME": "Bottrop, Kreisfreie Stadt", "LEVL_CODE": 3, "URBN_TYPE": 1}, "id": "DEA31"}, {"geometry": {"type": "Point", "coordinates": [7.0849, 51.5335]}, "type": "Feature", "properties": {"COAST_TYPE": 3, "MOUNT_TYPE": 4, "NAME_LATN": "Gelsenkirchen, Kreisfreie Stadt", "CNTR_CODE": "DE", "FID": "DEA32", "NUTS_ID": "DEA32", "NUTS_NAME": "Gelsenkirchen, Kreisfreie Stadt", "LEVL_CODE": 3, "URBN_TYPE": 1}, "id": "DEA32"}, {"geometry": {"type": "Point", "coordinates": [7.6332, 51.9518]}, "type": "Feature", "properties": {"COAST_TYPE": 3, "MOUNT_TYPE": 4, "NAME_LATN": "M\u00fcnster, Kreisfreie Stadt", "CNTR_CODE": "DE", "FID": "DEA33", "NUTS_ID": "DEA33", "NUTS_NAME": "M\u00fcnster, Kreisfreie Stadt", "LEVL_CODE": 3, "URBN_TYPE": 1}, "id": "DEA33"}, {"geometry": {"type": "Point", "coordinates": [6.9093, 51.9662]}, "type": "Feature", "properties": {"COAST_TYPE": 3, "MOUNT_TYPE": 4, "NAME_LATN": "Borken", "CNTR_CODE": "DE", "FID": "DEA34", "NUTS_ID": "DEA34", "NUTS_NAME": "Borken", "LEVL_CODE": 3, "URBN_TYPE": 2}, "id": "DEA34"}, {"geometry": {"type": "Point", "coordinates": [7.4136, 51.8518]}, "type": "Feature", "properties": {"COAST_TYPE": 3, "MOUNT_TYPE": 4, "NAME_LATN": "Coesfeld", "CNTR_CODE": "DE", "FID": "DEA35", "NUTS_ID": "DEA35", "NUTS_NAME": "Coesfeld", "LEVL_CODE": 3, "URBN_TYPE": 1}, "id": "DEA35"}, {"geometry": {"type": "Point", "coordinates": [7.1595, 51.671]}, "type": "Feature", "properties": {"COAST_TYPE": 3, "MOUNT_TYPE": 4, "NAME_LATN": "Recklinghausen", "CNTR_CODE": "DE", "FID": "DEA36", "NUTS_ID": "DEA36", "NUTS_NAME": "Recklinghausen", "LEVL_CODE": 3, "URBN_TYPE": 1}, "id": "DEA36"}, {"geometry": {"type": "Point", "coordinates": [7.5476, 52.2058]}, "type": "Feature", "properties": {"COAST_TYPE": 3, "MOUNT_TYPE": 4, "NAME_LATN": "Steinfurt", "CNTR_CODE": "DE", "FID": "DEA37", "NUTS_ID": "DEA37", "NUTS_NAME": "Steinfurt", "LEVL_CODE": 3, "URBN_TYPE": 2}, "id": "DEA37"}, {"geometry": {"type": "Point", "coordinates": [7.9518, 51.8703]}, "type": "Feature", "properties": {"COAST_TYPE": 3, "MOUNT_TYPE": 4, "NAME_LATN": "Warendorf", "CNTR_CODE": "DE", "FID": "DEA38", "NUTS_ID": "DEA38", "NUTS_NAME": "Warendorf", "LEVL_CODE": 3, "URBN_TYPE": 2}, "id": "DEA38"}, {"geometry": {"type": "Point", "coordinates": [8.5488, 52.0166]}, "type": "Feature", "properties": {"COAST_TYPE": 3, "MOUNT_TYPE": 4, "NAME_LATN": "Bielefeld, Kreisfreie Stadt", "CNTR_CODE": "DE", "FID": "DEA41", "NUTS_ID": "DEA41", "NUTS_NAME": "Bielefeld, Kreisfreie Stadt", "LEVL_CODE": 3, "URBN_TYPE": 1}, "id": "DEA41"}, {"geometry": {"type": "Point", "coordinates": [8.4224, 51.8573]}, "type": "Feature", "properties": {"COAST_TYPE": 3, "MOUNT_TYPE": 4, "NAME_LATN": "G\u00fctersloh", "CNTR_CODE": "DE", "FID": "DEA42", "NUTS_ID": "DEA42", "NUTS_NAME": "G\u00fctersloh", "LEVL_CODE": 3, "URBN_TYPE": 1}, "id": "DEA42"}, {"geometry": {"type": "Point", "coordinates": [8.6257, 52.166]}, "type": "Feature", "properties": {"COAST_TYPE": 3, "MOUNT_TYPE": 4, "NAME_LATN": "Herford", "CNTR_CODE": "DE", "FID": "DEA43", "NUTS_ID": "DEA43", "NUTS_NAME": "Herford", "LEVL_CODE": 3, "URBN_TYPE": 1}, "id": "DEA43"}, {"geometry": {"type": "Point", "coordinates": [9.1726, 51.6626]}, "type": "Feature", "properties": {"COAST_TYPE": 3, "MOUNT_TYPE": 4, "NAME_LATN": "H\u00f6xter", "CNTR_CODE": "DE", "FID": "DEA44", "NUTS_ID": "DEA44", "NUTS_NAME": "H\u00f6xter", "LEVL_CODE": 3, "URBN_TYPE": 3}, "id": "DEA44"}, {"geometry": {"type": "Point", "coordinates": [8.9483, 51.9838]}, "type": "Feature", "properties": {"COAST_TYPE": 3, "MOUNT_TYPE": 4, "NAME_LATN": "Lippe", "CNTR_CODE": "DE", "FID": "DEA45", "NUTS_ID": "DEA45", "NUTS_NAME": "Lippe", "LEVL_CODE": 3, "URBN_TYPE": 2}, "id": "DEA45"}, {"geometry": {"type": "Point", "coordinates": [8.7112, 52.3226]}, "type": "Feature", "properties": {"COAST_TYPE": 3, "MOUNT_TYPE": 4, "NAME_LATN": "Minden-L\u00fcbbecke", "CNTR_CODE": "DE", "FID": "DEA46", "NUTS_ID": "DEA46", "NUTS_NAME": "Minden-L\u00fcbbecke", "LEVL_CODE": 3, "URBN_TYPE": 2}, "id": "DEA46"}, {"geometry": {"type": "Point", "coordinates": [8.7144, 51.6618]}, "type": "Feature", "properties": {"COAST_TYPE": 3, "MOUNT_TYPE": 4, "NAME_LATN": "Paderborn", "CNTR_CODE": "DE", "FID": "DEA47", "NUTS_ID": "DEA47", "NUTS_NAME": "Paderborn", "LEVL_CODE": 3, "URBN_TYPE": 2}, "id": "DEA47"}, {"geometry": {"type": "Point", "coordinates": [7.2166, 51.4814]}, "type": "Feature", "properties": {"COAST_TYPE": 3, "MOUNT_TYPE": 4, "NAME_LATN": "Bochum, Kreisfreie Stadt", "CNTR_CODE": "DE", "FID": "DEA51", "NUTS_ID": "DEA51", "NUTS_NAME": "Bochum, Kreisfreie Stadt", "LEVL_CODE": 3, "URBN_TYPE": 1}, "id": "DEA51"}, {"geometry": {"type": "Point", "coordinates": [7.452, 51.5063]}, "type": "Feature", "properties": {"COAST_TYPE": 3, "MOUNT_TYPE": 4, "NAME_LATN": "Dortmund, Kreisfreie Stadt", "CNTR_CODE": "DE", "FID": "DEA52", "NUTS_ID": "DEA52", "NUTS_NAME": "Dortmund, Kreisfreie Stadt", "LEVL_CODE": 3, "URBN_TYPE": 1}, "id": "DEA52"}, {"geometry": {"type": "Point", "coordinates": [7.5224, 51.3587]}, "type": "Feature", "properties": {"COAST_TYPE": 3, "MOUNT_TYPE": 4, "NAME_LATN": "Hagen, Kreisfreie Stadt", "CNTR_CODE": "DE", "FID": "DEA53", "NUTS_ID": "DEA53", "NUTS_NAME": "Hagen, Kreisfreie Stadt", "LEVL_CODE": 3, "URBN_TYPE": 1}, "id": "DEA53"}, {"geometry": {"type": "Point", "coordinates": [7.8199, 51.6737]}, "type": "Feature", "properties": {"COAST_TYPE": 3, "MOUNT_TYPE": 4, "NAME_LATN": "Hamm, Kreisfreie Stadt", "CNTR_CODE": "DE", "FID": "DEA54", "NUTS_ID": "DEA54", "NUTS_NAME": "Hamm, Kreisfreie Stadt", "LEVL_CODE": 3, "URBN_TYPE": 1}, "id": "DEA54"}, {"geometry": {"type": "Point", "coordinates": [7.1781, 51.5302]}, "type": "Feature", "properties": {"COAST_TYPE": 3, "MOUNT_TYPE": 4, "NAME_LATN": "Herne, Kreisfreie Stadt", "CNTR_CODE": "DE", "FID": "DEA55", "NUTS_ID": "DEA55", "NUTS_NAME": "Herne, Kreisfreie Stadt", "LEVL_CODE": 3, "URBN_TYPE": 1}, "id": "DEA55"}, {"geometry": {"type": "Point", "coordinates": [7.3205, 51.3474]}, "type": "Feature", "properties": {"COAST_TYPE": 3, "MOUNT_TYPE": 4, "NAME_LATN": "Ennepe-Ruhr-Kreis", "CNTR_CODE": "DE", "FID": "DEA56", "NUTS_ID": "DEA56", "NUTS_NAME": "Ennepe-Ruhr-Kreis", "LEVL_CODE": 3, "URBN_TYPE": 1}, "id": "DEA56"}, {"geometry": {"type": "Point", "coordinates": [8.4172, 51.271]}, "type": "Feature", "properties": {"COAST_TYPE": 3, "MOUNT_TYPE": 2, "NAME_LATN": "Hochsauerlandkreis", "CNTR_CODE": "DE", "FID": "DEA57", "NUTS_ID": "DEA57", "NUTS_NAME": "Hochsauerlandkreis", "LEVL_CODE": 3, "URBN_TYPE": 2}, "id": "DEA57"}, {"geometry": {"type": "Point", "coordinates": [7.7215, 51.2714]}, "type": "Feature", "properties": {"COAST_TYPE": 3, "MOUNT_TYPE": 4, "NAME_LATN": "M\u00e4rkischer Kreis", "CNTR_CODE": "DE", "FID": "DEA58", "NUTS_ID": "DEA58", "NUTS_NAME": "M\u00e4rkischer Kreis", "LEVL_CODE": 3, "URBN_TYPE": 1}, "id": "DEA58"}, {"geometry": {"type": "Point", "coordinates": [7.9532, 51.0798]}, "type": "Feature", "properties": {"COAST_TYPE": 3, "MOUNT_TYPE": 2, "NAME_LATN": "Olpe", "CNTR_CODE": "DE", "FID": "DEA59", "NUTS_ID": "DEA59", "NUTS_NAME": "Olpe", "LEVL_CODE": 3, "URBN_TYPE": 2}, "id": "DEA59"}, {"geometry": {"type": "Point", "coordinates": [8.1938, 50.9308]}, "type": "Feature", "properties": {"COAST_TYPE": 3, "MOUNT_TYPE": 2, "NAME_LATN": "Siegen-Wittgenstein", "CNTR_CODE": "DE", "FID": "DEA5A", "NUTS_ID": "DEA5A", "NUTS_NAME": "Siegen-Wittgenstein", "LEVL_CODE": 3, "URBN_TYPE": 2}, "id": "DEA5A"}, {"geometry": {"type": "Point", "coordinates": [8.1857, 51.5701]}, "type": "Feature", "properties": {"COAST_TYPE": 3, "MOUNT_TYPE": 4, "NAME_LATN": "Soest", "CNTR_CODE": "DE", "FID": "DEA5B", "NUTS_ID": "DEA5B", "NUTS_NAME": "Soest", "LEVL_CODE": 3, "URBN_TYPE": 2}, "id": "DEA5B"}, {"geometry": {"type": "Point", "coordinates": [7.7306, 51.5453]}, "type": "Feature", "properties": {"COAST_TYPE": 3, "MOUNT_TYPE": 4, "NAME_LATN": "Unna", "CNTR_CODE": "DE", "FID": "DEA5C", "NUTS_ID": "DEA5C", "NUTS_NAME": "Unna", "LEVL_CODE": 3, "URBN_TYPE": 1}, "id": "DEA5C"}, {"geometry": {"type": "Point", "coordinates": [7.6181, 50.3552]}, "type": "Feature", "properties": {"COAST_TYPE": 3, "MOUNT_TYPE": 4, "NAME_LATN": "Koblenz, Kreisfreie Stadt", "CNTR_CODE": "DE", "FID": "DEB11", "NUTS_ID": "DEB11", "NUTS_NAME": "Koblenz, Kreisfreie Stadt", "LEVL_CODE": 3, "URBN_TYPE": 2}, "id": "DEB11"}, {"geometry": {"type": "Point", "coordinates": [7.0691, 50.4799]}, "type": "Feature", "properties": {"COAST_TYPE": 3, "MOUNT_TYPE": 2, "NAME_LATN": "Ahrweiler", "CNTR_CODE": "DE", "FID": "DEB12", "NUTS_ID": "DEB12", "NUTS_NAME": "Ahrweiler", "LEVL_CODE": 3, "URBN_TYPE": 2}, "id": "DEB12"}, {"geometry": {"type": "Point", "coordinates": [7.7402, 50.7908]}, "type": "Feature", "properties": {"COAST_TYPE": 3, "MOUNT_TYPE": 4, "NAME_LATN": "Altenkirchen (Westerwald)", "CNTR_CODE": "DE", "FID": "DEB13", "NUTS_ID": "DEB13", "NUTS_NAME": "Altenkirchen (Westerwald)", "LEVL_CODE": 3, "URBN_TYPE": 3}, "id": "DEB13"}, {"geometry": {"type": "Point", "coordinates": [7.6885, 49.8254]}, "type": "Feature", "properties": {"COAST_TYPE": 3, "MOUNT_TYPE": 4, "NAME_LATN": "Bad Kreuznach", "CNTR_CODE": "DE", "FID": "DEB14", "NUTS_ID": "DEB14", "NUTS_NAME": "Bad Kreuznach", "LEVL_CODE": 3, "URBN_TYPE": 2}, "id": "DEB14"}, {"geometry": {"type": "Point", "coordinates": [7.272, 49.7113]}, "type": "Feature", "properties": {"COAST_TYPE": 3, "MOUNT_TYPE": 3, "NAME_LATN": "Birkenfeld", "CNTR_CODE": "DE", "FID": "DEB15", "NUTS_ID": "DEB15", "NUTS_NAME": "Birkenfeld", "LEVL_CODE": 3, "URBN_TYPE": 3}, "id": "DEB15"}, {"geometry": {"type": "Point", "coordinates": [7.3331, 50.3304]}, "type": "Feature", "properties": {"COAST_TYPE": 3, "MOUNT_TYPE": 4, "NAME_LATN": "Mayen-Koblenz", "CNTR_CODE": "DE", "FID": "DEB17", "NUTS_ID": "DEB17", "NUTS_NAME": "Mayen-Koblenz", "LEVL_CODE": 3, "URBN_TYPE": 2}, "id": "DEB17"}, {"geometry": {"type": "Point", "coordinates": [7.4566, 50.5416]}, "type": "Feature", "properties": {"COAST_TYPE": 3, "MOUNT_TYPE": 4, "NAME_LATN": "Neuwied", "CNTR_CODE": "DE", "FID": "DEB18", "NUTS_ID": "DEB18", "NUTS_NAME": "Neuwied", "LEVL_CODE": 3, "URBN_TYPE": 2}, "id": "DEB18"}, {"geometry": {"type": "Point", "coordinates": [7.8408, 50.2607]}, "type": "Feature", "properties": {"COAST_TYPE": 3, "MOUNT_TYPE": 3, "NAME_LATN": "Rhein-Lahn-Kreis", "CNTR_CODE": "DE", "FID": "DEB1A", "NUTS_ID": "DEB1A", "NUTS_NAME": "Rhein-Lahn-Kreis", "LEVL_CODE": 3, "URBN_TYPE": 2}, "id": "DEB1A"}, {"geometry": {"type": "Point", "coordinates": [7.8652, 50.5496]}, "type": "Feature", "properties": {"COAST_TYPE": 3, "MOUNT_TYPE": 4, "NAME_LATN": "Westerwaldkreis", "CNTR_CODE": "DE", "FID": "DEB1B", "NUTS_ID": "DEB1B", "NUTS_NAME": "Westerwaldkreis", "LEVL_CODE": 3, "URBN_TYPE": 3}, "id": "DEB1B"}, {"geometry": {"type": "Point", "coordinates": [7.1649, 50.1316]}, "type": "Feature", "properties": {"COAST_TYPE": 3, "MOUNT_TYPE": 3, "NAME_LATN": "Cochem-Zell", "CNTR_CODE": "DE", "FID": "DEB1C", "NUTS_ID": "DEB1C", "NUTS_NAME": "Cochem-Zell", "LEVL_CODE": 3, "URBN_TYPE": 3}, "id": "DEB1C"}, {"geometry": {"type": "Point", "coordinates": [7.501, 50.0415]}, "type": "Feature", "properties": {"COAST_TYPE": 3, "MOUNT_TYPE": 1, "NAME_LATN": "Rhein-Hunsr\u00fcck-Kreis", "CNTR_CODE": "DE", "FID": "DEB1D", "NUTS_ID": "DEB1D", "NUTS_NAME": "Rhein-Hunsr\u00fcck-Kreis", "LEVL_CODE": 3, "URBN_TYPE": 3}, "id": "DEB1D"}, {"geometry": {"type": "Point", "coordinates": [6.6698, 49.7704]}, "type": "Feature", "properties": {"COAST_TYPE": 3, "MOUNT_TYPE": 4, "NAME_LATN": "Trier, Kreisfreie Stadt", "CNTR_CODE": "DE", "FID": "DEB21", "NUTS_ID": "DEB21", "NUTS_NAME": "Trier, Kreisfreie Stadt", "LEVL_CODE": 3, "URBN_TYPE": 2}, "id": "DEB21"}, {"geometry": {"type": "Point", "coordinates": [6.9647, 49.9272]}, "type": "Feature", "properties": {"COAST_TYPE": 3, "MOUNT_TYPE": 3, "NAME_LATN": "Bernkastel-Wittlich", "CNTR_CODE": "DE", "FID": "DEB22", "NUTS_ID": "DEB22", "NUTS_NAME": "Bernkastel-Wittlich", "LEVL_CODE": 3, "URBN_TYPE": 3}, "id": "DEB22"}, {"geometry": {"type": "Point", "coordinates": [6.4459, 50.0681]}, "type": "Feature", "properties": {"COAST_TYPE": 3, "MOUNT_TYPE": 4, "NAME_LATN": "Eifelkreis Bitburg-Pr\u00fcm", "CNTR_CODE": "DE", "FID": "DEB23", "NUTS_ID": "DEB23", "NUTS_NAME": "Eifelkreis Bitburg-Pr\u00fcm", "LEVL_CODE": 3, "URBN_TYPE": 3}, "id": "DEB23"}, {"geometry": {"type": "Point", "coordinates": [6.7687, 50.234]}, "type": "Feature", "properties": {"COAST_TYPE": 3, "MOUNT_TYPE": 4, "NAME_LATN": "Vulkaneifel", "CNTR_CODE": "DE", "FID": "DEB24", "NUTS_ID": "DEB24", "NUTS_NAME": "Vulkaneifel", "LEVL_CODE": 3, "URBN_TYPE": 3}, "id": "DEB24"}, {"geometry": {"type": "Point", "coordinates": [6.7122, 49.6518]}, "type": "Feature", "properties": {"COAST_TYPE": 3, "MOUNT_TYPE": 3, "NAME_LATN": "Trier-Saarburg", "CNTR_CODE": "DE", "FID": "DEB25", "NUTS_ID": "DEB25", "NUTS_NAME": "Trier-Saarburg", "LEVL_CODE": 3, "URBN_TYPE": 2}, "id": "DEB25"}, {"geometry": {"type": "Point", "coordinates": [8.3846, 49.5515]}, "type": "Feature", "properties": {"COAST_TYPE": 3, "MOUNT_TYPE": 4, "NAME_LATN": "Frankenthal (Pfalz), Kreisfreie Stadt", "CNTR_CODE": "DE", "FID": "DEB31", "NUTS_ID": "DEB31", "NUTS_NAME": "Frankenthal (Pfalz), Kreisfreie Stadt", "LEVL_CODE": 3, "URBN_TYPE": 1}, "id": "DEB31"}, {"geometry": {"type": "Point", "coordinates": [7.7231, 49.4377]}, "type": "Feature", "properties": {"COAST_TYPE": 3, "MOUNT_TYPE": 4, "NAME_LATN": "Kaiserslautern, Kreisfreie Stadt", "CNTR_CODE": "DE", "FID": "DEB32", "NUTS_ID": "DEB32", "NUTS_NAME": "Kaiserslautern, Kreisfreie Stadt", "LEVL_CODE": 3, "URBN_TYPE": 2}, "id": "DEB32"}, {"geometry": {"type": "Point", "coordinates": [8.1138, 49.1973]}, "type": "Feature", "properties": {"COAST_TYPE": 3, "MOUNT_TYPE": 4, "NAME_LATN": "Landau in der Pfalz, Kreisfreie Stadt", "CNTR_CODE": "DE", "FID": "DEB33", "NUTS_ID": "DEB33", "NUTS_NAME": "Landau in der Pfalz, Kreisfreie Stadt", "LEVL_CODE": 3, "URBN_TYPE": 1}, "id": "DEB33"}, {"geometry": {"type": "Point", "coordinates": [8.4067, 49.4836]}, "type": "Feature", "properties": {"COAST_TYPE": 3, "MOUNT_TYPE": 4, "NAME_LATN": "Ludwigshafen am Rhein, Kreisfreie Stadt", "CNTR_CODE": "DE", "FID": "DEB34", "NUTS_ID": "DEB34", "NUTS_NAME": "Ludwigshafen am Rhein, Kreisfreie Stadt", "LEVL_CODE": 3, "URBN_TYPE": 1}, "id": "DEB34"}, {"geometry": {"type": "Point", "coordinates": [8.2488, 49.982]}, "type": "Feature", "properties": {"COAST_TYPE": 3, "MOUNT_TYPE": 4, "NAME_LATN": "Mainz, Kreisfreie Stadt", "CNTR_CODE": "DE", "FID": "DEB35", "NUTS_ID": "DEB35", "NUTS_NAME": "Mainz, Kreisfreie Stadt", "LEVL_CODE": 3, "URBN_TYPE": 1}, "id": "DEB35"}, {"geometry": {"type": "Point", "coordinates": [8.1585, 49.3541]}, "type": "Feature", "properties": {"COAST_TYPE": 3, "MOUNT_TYPE": 4, "NAME_LATN": "Neustadt an der Weinstra\u00dfe, Kreisfreie Stadt", "CNTR_CODE": "DE", "FID": "DEB36", "NUTS_ID": "DEB36", "NUTS_NAME": "Neustadt an der Weinstra\u00dfe, Kreisfreie Stadt", "LEVL_CODE": 3, "URBN_TYPE": 2}, "id": "DEB36"}, {"geometry": {"type": "Point", "coordinates": [7.5847, 49.2018]}, "type": "Feature", "properties": {"COAST_TYPE": 3, "MOUNT_TYPE": 4, "NAME_LATN": "Pirmasens, Kreisfreie Stadt", "CNTR_CODE": "DE", "FID": "DEB37", "NUTS_ID": "DEB37", "NUTS_NAME": "Pirmasens, Kreisfreie Stadt", "LEVL_CODE": 3, "URBN_TYPE": 3}, "id": "DEB37"}, {"geometry": {"type": "Point", "coordinates": [8.4443, 49.3209]}, "type": "Feature", "properties": {"COAST_TYPE": 3, "MOUNT_TYPE": 4, "NAME_LATN": "Speyer, Kreisfreie Stadt", "CNTR_CODE": "DE", "FID": "DEB38", "NUTS_ID": "DEB38", "NUTS_NAME": "Speyer, Kreisfreie Stadt", "LEVL_CODE": 3, "URBN_TYPE": 1}, "id": "DEB38"}, {"geometry": {"type": "Point", "coordinates": [8.3246, 49.6312]}, "type": "Feature", "properties": {"COAST_TYPE": 3, "MOUNT_TYPE": 4, "NAME_LATN": "Worms, Kreisfreie Stadt", "CNTR_CODE": "DE", "FID": "DEB39", "NUTS_ID": "DEB39", "NUTS_NAME": "Worms, Kreisfreie Stadt", "LEVL_CODE": 3, "URBN_TYPE": 1}, "id": "DEB39"}, {"geometry": {"type": "Point", "coordinates": [7.3606, 49.247]}, "type": "Feature", "properties": {"COAST_TYPE": 3, "MOUNT_TYPE": 4, "NAME_LATN": "Zweibr\u00fccken, Kreisfreie Stadt", "CNTR_CODE": "DE", "FID": "DEB3A", "NUTS_ID": "DEB3A", "NUTS_NAME": "Zweibr\u00fccken, Kreisfreie Stadt", "LEVL_CODE": 3, "URBN_TYPE": 2}, "id": "DEB3A"}, {"geometry": {"type": "Point", "coordinates": [8.1601, 49.742]}, "type": "Feature", "properties": {"COAST_TYPE": 3, "MOUNT_TYPE": 4, "NAME_LATN": "Alzey-Worms", "CNTR_CODE": "DE", "FID": "DEB3B", "NUTS_ID": "DEB3B", "NUTS_NAME": "Alzey-Worms", "LEVL_CODE": 3, "URBN_TYPE": 3}, "id": "DEB3B"}, {"geometry": {"type": "Point", "coordinates": [8.1144, 49.4587]}, "type": "Feature", "properties": {"COAST_TYPE": 3, "MOUNT_TYPE": 4, "NAME_LATN": "Bad D\u00fcrkheim", "CNTR_CODE": "DE", "FID": "DEB3C", "NUTS_ID": "DEB3C", "NUTS_NAME": "Bad D\u00fcrkheim", "LEVL_CODE": 3, "URBN_TYPE": 2}, "id": "DEB3C"}, {"geometry": {"type": "Point", "coordinates": [7.9153, 49.6231]}, "type": "Feature", "properties": {"COAST_TYPE": 3, "MOUNT_TYPE": 4, "NAME_LATN": "Donnersbergkreis", "CNTR_CODE": "DE", "FID": "DEB3D", "NUTS_ID": "DEB3D", "NUTS_NAME": "Donnersbergkreis", "LEVL_CODE": 3, "URBN_TYPE": 3}, "id": "DEB3D"}, {"geometry": {"type": "Point", "coordinates": [8.2407, 49.0475]}, "type": "Feature", "properties": {"COAST_TYPE": 3, "MOUNT_TYPE": 4, "NAME_LATN": "Germersheim", "CNTR_CODE": "DE", "FID": "DEB3E", "NUTS_ID": "DEB3E", "NUTS_NAME": "Germersheim", "LEVL_CODE": 3, "URBN_TYPE": 1}, "id": "DEB3E"}, {"geometry": {"type": "Point", "coordinates": [7.538, 49.4143]}, "type": "Feature", "properties": {"COAST_TYPE": 3, "MOUNT_TYPE": 4, "NAME_LATN": "Kaiserslautern, Landkreis", "CNTR_CODE": "DE", "FID": "DEB3F", "NUTS_ID": "DEB3F", "NUTS_NAME": "Kaiserslautern, Landkreis", "LEVL_CODE": 3, "URBN_TYPE": 2}, "id": "DEB3F"}, {"geometry": {"type": "Point", "coordinates": [7.4677, 49.5499]}, "type": "Feature", "properties": {"COAST_TYPE": 3, "MOUNT_TYPE": 4, "NAME_LATN": "Kusel", "CNTR_CODE": "DE", "FID": "DEB3G", "NUTS_ID": "DEB3G", "NUTS_NAME": "Kusel", "LEVL_CODE": 3, "URBN_TYPE": 3}, "id": "DEB3G"}, {"geometry": {"type": "Point", "coordinates": [7.9846, 49.1]}, "type": "Feature", "properties": {"COAST_TYPE": 3, "MOUNT_TYPE": 4, "NAME_LATN": "S\u00fcdliche Weinstra\u00dfe", "CNTR_CODE": "DE", "FID": "DEB3H", "NUTS_ID": "DEB3H", "NUTS_NAME": "S\u00fcdliche Weinstra\u00dfe", "LEVL_CODE": 3, "URBN_TYPE": 2}, "id": "DEB3H"}, {"geometry": {"type": "Point", "coordinates": [8.3705, 49.4064]}, "type": "Feature", "properties": {"COAST_TYPE": 3, "MOUNT_TYPE": 4, "NAME_LATN": "Rhein-Pfalz-Kreis", "CNTR_CODE": "DE", "FID": "DEB3I", "NUTS_ID": "DEB3I", "NUTS_NAME": "Rhein-Pfalz-Kreis", "LEVL_CODE": 3, "URBN_TYPE": 1}, "id": "DEB3I"}, {"geometry": {"type": "Point", "coordinates": [8.0673, 49.946]}, "type": "Feature", "properties": {"COAST_TYPE": 3, "MOUNT_TYPE": 4, "NAME_LATN": "Mainz-Bingen", "CNTR_CODE": "DE", "FID": "DEB3J", "NUTS_ID": "DEB3J", "NUTS_NAME": "Mainz-Bingen", "LEVL_CODE": 3, "URBN_TYPE": 2}, "id": "DEB3J"}, {"geometry": {"type": "Point", "coordinates": [7.7631, 49.1846]}, "type": "Feature", "properties": {"COAST_TYPE": 3, "MOUNT_TYPE": 4, "NAME_LATN": "S\u00fcdwestpfalz", "CNTR_CODE": "DE", "FID": "DEB3K", "NUTS_ID": "DEB3K", "NUTS_NAME": "S\u00fcdwestpfalz", "LEVL_CODE": 3, "URBN_TYPE": 3}, "id": "DEB3K"}, {"geometry": {"type": "Point", "coordinates": [6.9696, 49.2655]}, "type": "Feature", "properties": {"COAST_TYPE": 3, "MOUNT_TYPE": 0, "NAME_LATN": "Regionalverband Saarbr\u00fccken", "CNTR_CODE": "DE", "FID": "DEC01", "NUTS_ID": "DEC01", "NUTS_NAME": "Regionalverband Saarbr\u00fccken", "LEVL_CODE": 3, "URBN_TYPE": 1}, "id": "DEC01"}, {"geometry": {"type": "Point", "coordinates": [6.6386, 49.4877]}, "type": "Feature", "properties": {"COAST_TYPE": 3, "MOUNT_TYPE": 0, "NAME_LATN": "Merzig-Wadern", "CNTR_CODE": "DE", "FID": "DEC02", "NUTS_ID": "DEC02", "NUTS_NAME": "Merzig-Wadern", "LEVL_CODE": 3, "URBN_TYPE": 2}, "id": "DEC02"}, {"geometry": {"type": "Point", "coordinates": [7.1116, 49.3853]}, "type": "Feature", "properties": {"COAST_TYPE": 3, "MOUNT_TYPE": 0, "NAME_LATN": "Neunkirchen", "CNTR_CODE": "DE", "FID": "DEC03", "NUTS_ID": "DEC03", "NUTS_NAME": "Neunkirchen", "LEVL_CODE": 3, "URBN_TYPE": 2}, "id": "DEC03"}, {"geometry": {"type": "Point", "coordinates": [6.7732, 49.3289]}, "type": "Feature", "properties": {"COAST_TYPE": 3, "MOUNT_TYPE": 0, "NAME_LATN": "Saarlouis", "CNTR_CODE": "DE", "FID": "DEC04", "NUTS_ID": "DEC04", "NUTS_NAME": "Saarlouis", "LEVL_CODE": 3, "URBN_TYPE": 1}, "id": "DEC04"}, {"geometry": {"type": "Point", "coordinates": [7.2484, 49.2521]}, "type": "Feature", "properties": {"COAST_TYPE": 3, "MOUNT_TYPE": 0, "NAME_LATN": "Saarpfalz-Kreis", "CNTR_CODE": "DE", "FID": "DEC05", "NUTS_ID": "DEC05", "NUTS_NAME": "Saarpfalz-Kreis", "LEVL_CODE": 3, "URBN_TYPE": 1}, "id": "DEC05"}, {"geometry": {"type": "Point", "coordinates": [7.0935, 49.5237]}, "type": "Feature", "properties": {"COAST_TYPE": 3, "MOUNT_TYPE": 0, "NAME_LATN": "St. Wendel", "CNTR_CODE": "DE", "FID": "DEC06", "NUTS_ID": "DEC06", "NUTS_NAME": "St. Wendel", "LEVL_CODE": 3, "URBN_TYPE": 2}, "id": "DEC06"}, {"geometry": {"type": "Point", "coordinates": [13.7782, 51.0697]}, "type": "Feature", "properties": {"COAST_TYPE": 3, "MOUNT_TYPE": 4, "NAME_LATN": "Dresden, Kreisfreie Stadt", "CNTR_CODE": "DE", "FID": "DED21", "NUTS_ID": "DED21", "NUTS_NAME": "Dresden, Kreisfreie Stadt", "LEVL_CODE": 3, "URBN_TYPE": 1}, "id": "DED21"}, {"geometry": {"type": "Point", "coordinates": [14.213, 51.2706]}, "type": "Feature", "properties": {"COAST_TYPE": 3, "MOUNT_TYPE": 4, "NAME_LATN": "Bautzen", "CNTR_CODE": "DE", "FID": "DED2C", "NUTS_ID": "DED2C", "NUTS_NAME": "Bautzen", "LEVL_CODE": 3, "URBN_TYPE": 3}, "id": "DED2C"}, {"geometry": {"type": "Point", "coordinates": [14.8426, 51.2074]}, "type": "Feature", "properties": {"COAST_TYPE": 3, "MOUNT_TYPE": 4, "NAME_LATN": "G\u00f6rlitz", "CNTR_CODE": "DE", "FID": "DED2D", "NUTS_ID": "DED2D", "NUTS_NAME": "G\u00f6rlitz", "LEVL_CODE": 3, "URBN_TYPE": 2}, "id": "DED2D"}, {"geometry": {"type": "Point", "coordinates": [13.4964, 51.244]}, "type": "Feature", "properties": {"COAST_TYPE": 3, "MOUNT_TYPE": 4, "NAME_LATN": "Mei\u00dfen", "CNTR_CODE": "DE", "FID": "DED2E", "NUTS_ID": "DED2E", "NUTS_NAME": "Mei\u00dfen", "LEVL_CODE": 3, "URBN_TYPE": 2}, "id": "DED2E"}, {"geometry": {"type": "Point", "coordinates": [13.8699, 50.8845]}, "type": "Feature", "properties": {"COAST_TYPE": 3, "MOUNT_TYPE": 4, "NAME_LATN": "S\u00e4chsische Schweiz-Osterzgebirge", "CNTR_CODE": "DE", "FID": "DED2F", "NUTS_ID": "DED2F", "NUTS_NAME": "S\u00e4chsische Schweiz-Osterzgebirge", "LEVL_CODE": 3, "URBN_TYPE": 1}, "id": "DED2F"}, {"geometry": {"type": "Point", "coordinates": [12.899, 50.8105]}, "type": "Feature", "properties": {"COAST_TYPE": 3, "MOUNT_TYPE": 4, "NAME_LATN": "Chemnitz, Kreisfreie Stadt", "CNTR_CODE": "DE", "FID": "DED41", "NUTS_ID": "DED41", "NUTS_NAME": "Chemnitz, Kreisfreie Stadt", "LEVL_CODE": 3, "URBN_TYPE": 2}, "id": "DED41"}, {"geometry": {"type": "Point", "coordinates": [12.9429, 50.6064]}, "type": "Feature", "properties": {"COAST_TYPE": 3, "MOUNT_TYPE": 3, "NAME_LATN": "Erzgebirgskreis", "CNTR_CODE": "DE", "FID": "DED42", "NUTS_ID": "DED42", "NUTS_NAME": "Erzgebirgskreis", "LEVL_CODE": 3, "URBN_TYPE": 2}, "id": "DED42"}, {"geometry": {"type": "Point", "coordinates": [13.1359, 50.957]}, "type": "Feature", "properties": {"COAST_TYPE": 3, "MOUNT_TYPE": 4, "NAME_LATN": "Mittelsachsen", "CNTR_CODE": "DE", "FID": "DED43", "NUTS_ID": "DED43", "NUTS_NAME": "Mittelsachsen", "LEVL_CODE": 3, "URBN_TYPE": 2}, "id": "DED43"}, {"geometry": {"type": "Point", "coordinates": [12.2257, 50.4807]}, "type": "Feature", "properties": {"COAST_TYPE": 3, "MOUNT_TYPE": 4, "NAME_LATN": "Vogtlandkreis", "CNTR_CODE": "DE", "FID": "DED44", "NUTS_ID": "DED44", "NUTS_NAME": "Vogtlandkreis", "LEVL_CODE": 3, "URBN_TYPE": 2}, "id": "DED44"}, {"geometry": {"type": "Point", "coordinates": [12.528, 50.7575]}, "type": "Feature", "properties": {"COAST_TYPE": 3, "MOUNT_TYPE": 4, "NAME_LATN": "Zwickau", "CNTR_CODE": "DE", "FID": "DED45", "NUTS_ID": "DED45", "NUTS_NAME": "Zwickau", "LEVL_CODE": 3, "URBN_TYPE": 2}, "id": "DED45"}, {"geometry": {"type": "Point", "coordinates": [12.3884, 51.3207]}, "type": "Feature", "properties": {"COAST_TYPE": 3, "MOUNT_TYPE": 4, "NAME_LATN": "Leipzig, Kreisfreie Stadt", "CNTR_CODE": "DE", "FID": "DED51", "NUTS_ID": "DED51", "NUTS_NAME": "Leipzig, Kreisfreie Stadt", "LEVL_CODE": 3, "URBN_TYPE": 1}, "id": "DED51"}, {"geometry": {"type": "Point", "coordinates": [12.5787, 51.2071]}, "type": "Feature", "properties": {"COAST_TYPE": 3, "MOUNT_TYPE": 4, "NAME_LATN": "Leipzig", "CNTR_CODE": "DE", "FID": "DED52", "NUTS_ID": "DED52", "NUTS_NAME": "Leipzig", "LEVL_CODE": 3, "URBN_TYPE": 1}, "id": "DED52"}, {"geometry": {"type": "Point", "coordinates": [12.7018, 51.5399]}, "type": "Feature", "properties": {"COAST_TYPE": 3, "MOUNT_TYPE": 4, "NAME_LATN": "Nordsachsen", "CNTR_CODE": "DE", "FID": "DED53", "NUTS_ID": "DED53", "NUTS_NAME": "Nordsachsen", "LEVL_CODE": 3, "URBN_TYPE": 3}, "id": "DED53"}, {"geometry": {"type": "Point", "coordinates": [12.2333, 51.8538]}, "type": "Feature", "properties": {"COAST_TYPE": 3, "MOUNT_TYPE": 4, "NAME_LATN": "Dessau-Ro\u00dflau, Kreisfreie Stadt", "CNTR_CODE": "DE", "FID": "DEE01", "NUTS_ID": "DEE01", "NUTS_NAME": "Dessau-Ro\u00dflau, Kreisfreie Stadt", "LEVL_CODE": 3, "URBN_TYPE": 2}, "id": "DEE01"}, {"geometry": {"type": "Point", "coordinates": [11.9712, 51.4788]}, "type": "Feature", "properties": {"COAST_TYPE": 3, "MOUNT_TYPE": 4, "NAME_LATN": "Halle (Saale), Kreisfreie Stadt", "CNTR_CODE": "DE", "FID": "DEE02", "NUTS_ID": "DEE02", "NUTS_NAME": "Halle (Saale), Kreisfreie Stadt", "LEVL_CODE": 3, "URBN_TYPE": 2}, "id": "DEE02"}, {"geometry": {"type": "Point", "coordinates": [11.654, 52.1098]}, "type": "Feature", "properties": {"COAST_TYPE": 3, "MOUNT_TYPE": 4, "NAME_LATN": "Magdeburg, Kreisfreie Stadt", "CNTR_CODE": "DE", "FID": "DEE03", "NUTS_ID": "DEE03", "NUTS_NAME": "Magdeburg, Kreisfreie Stadt", "LEVL_CODE": 3, "URBN_TYPE": 2}, "id": "DEE03"}, {"geometry": {"type": "Point", "coordinates": [11.2091, 52.6917]}, "type": "Feature", "properties": {"COAST_TYPE": 3, "MOUNT_TYPE": 4, "NAME_LATN": "Altmarkkreis Salzwedel", "CNTR_CODE": "DE", "FID": "DEE04", "NUTS_ID": "DEE04", "NUTS_NAME": "Altmarkkreis Salzwedel", "LEVL_CODE": 3, "URBN_TYPE": 3}, "id": "DEE04"}, {"geometry": {"type": "Point", "coordinates": [12.2227, 51.6539]}, "type": "Feature", "properties": {"COAST_TYPE": 3, "MOUNT_TYPE": 4, "NAME_LATN": "Anhalt-Bitterfeld", "CNTR_CODE": "DE", "FID": "DEE05", "NUTS_ID": "DEE05", "NUTS_NAME": "Anhalt-Bitterfeld", "LEVL_CODE": 3, "URBN_TYPE": 2}, "id": "DEE05"}, {"geometry": {"type": "Point", "coordinates": [12.0287, 52.2465]}, "type": "Feature", "properties": {"COAST_TYPE": 3, "MOUNT_TYPE": 4, "NAME_LATN": "Jerichower Land", "CNTR_CODE": "DE", "FID": "DEE06", "NUTS_ID": "DEE06", "NUTS_NAME": "Jerichower Land", "LEVL_CODE": 3, "URBN_TYPE": 3}, "id": "DEE06"}, {"geometry": {"type": "Point", "coordinates": [11.3383, 52.2188]}, "type": "Feature", "properties": {"COAST_TYPE": 3, "MOUNT_TYPE": 4, "NAME_LATN": "B\u00f6rde", "CNTR_CODE": "DE", "FID": "DEE07", "NUTS_ID": "DEE07", "NUTS_NAME": "B\u00f6rde", "LEVL_CODE": 3, "URBN_TYPE": 2}, "id": "DEE07"}, {"geometry": {"type": "Point", "coordinates": [11.8873, 51.1428]}, "type": "Feature", "properties": {"COAST_TYPE": 3, "MOUNT_TYPE": 4, "NAME_LATN": "Burgenlandkreis", "CNTR_CODE": "DE", "FID": "DEE08", "NUTS_ID": "DEE08", "NUTS_NAME": "Burgenlandkreis", "LEVL_CODE": 3, "URBN_TYPE": 3}, "id": "DEE08"}, {"geometry": {"type": "Point", "coordinates": [10.9426, 51.8365]}, "type": "Feature", "properties": {"COAST_TYPE": 3, "MOUNT_TYPE": 4, "NAME_LATN": "Harz", "CNTR_CODE": "DE", "FID": "DEE09", "NUTS_ID": "DEE09", "NUTS_NAME": "Harz", "LEVL_CODE": 3, "URBN_TYPE": 2}, "id": "DEE09"}, {"geometry": {"type": "Point", "coordinates": [11.3363, 51.5388]}, "type": "Feature", "properties": {"COAST_TYPE": 3, "MOUNT_TYPE": 4, "NAME_LATN": "Mansfeld-S\u00fcdharz", "CNTR_CODE": "DE", "FID": "DEE0A", "NUTS_ID": "DEE0A", "NUTS_NAME": "Mansfeld-S\u00fcdharz", "LEVL_CODE": 3, "URBN_TYPE": 3}, "id": "DEE0A"}, {"geometry": {"type": "Point", "coordinates": [11.8139, 51.4546]}, "type": "Feature", "properties": {"COAST_TYPE": 3, "MOUNT_TYPE": 4, "NAME_LATN": "Saalekreis", "CNTR_CODE": "DE", "FID": "DEE0B", "NUTS_ID": "DEE0B", "NUTS_NAME": "Saalekreis", "LEVL_CODE": 3, "URBN_TYPE": 2}, "id": "DEE0B"}, {"geometry": {"type": "Point", "coordinates": [11.6514, 51.8466]}, "type": "Feature", "properties": {"COAST_TYPE": 3, "MOUNT_TYPE": 4, "NAME_LATN": "Salzlandkreis", "CNTR_CODE": "DE", "FID": "DEE0C", "NUTS_ID": "DEE0C", "NUTS_NAME": "Salzlandkreis", "LEVL_CODE": 3, "URBN_TYPE": 2}, "id": "DEE0C"}, {"geometry": {"type": "Point", "coordinates": [11.8487, 52.6975]}, "type": "Feature", "properties": {"COAST_TYPE": 3, "MOUNT_TYPE": 4, "NAME_LATN": "Stendal", "CNTR_CODE": "DE", "FID": "DEE0D", "NUTS_ID": "DEE0D", "NUTS_NAME": "Stendal", "LEVL_CODE": 3, "URBN_TYPE": 3}, "id": "DEE0D"}, {"geometry": {"type": "Point", "coordinates": [12.6887, 51.8237]}, "type": "Feature", "properties": {"COAST_TYPE": 3, "MOUNT_TYPE": 4, "NAME_LATN": "Wittenberg", "CNTR_CODE": "DE", "FID": "DEE0E", "NUTS_ID": "DEE0E", "NUTS_NAME": "Wittenberg", "LEVL_CODE": 3, "URBN_TYPE": 3}, "id": "DEE0E"}, {"geometry": {"type": "Point", "coordinates": [9.4499, 54.79]}, "type": "Feature", "properties": {"COAST_TYPE": 1, "MOUNT_TYPE": 4, "NAME_LATN": "Flensburg, Kreisfreie Stadt", "CNTR_CODE": "DE", "FID": "DEF01", "NUTS_ID": "DEF01", "NUTS_NAME": "Flensburg, Kreisfreie Stadt", "LEVL_CODE": 3, "URBN_TYPE": 2}, "id": "DEF01"}, {"geometry": {"type": "Point", "coordinates": [10.1325, 54.3399]}, "type": "Feature", "properties": {"COAST_TYPE": 1, "MOUNT_TYPE": 4, "NAME_LATN": "Kiel, Kreisfreie Stadt", "CNTR_CODE": "DE", "FID": "DEF02", "NUTS_ID": "DEF02", "NUTS_NAME": "Kiel, Kreisfreie Stadt", "LEVL_CODE": 3, "URBN_TYPE": 1}, "id": "DEF02"}, {"geometry": {"type": "Point", "coordinates": [10.7198, 53.8762]}, "type": "Feature", "properties": {"COAST_TYPE": 1, "MOUNT_TYPE": 4, "NAME_LATN": "L\u00fcbeck, Kreisfreie Stadt", "CNTR_CODE": "DE", "FID": "DEF03", "NUTS_ID": "DEF03", "NUTS_NAME": "L\u00fcbeck, Kreisfreie Stadt", "LEVL_CODE": 3, "URBN_TYPE": 2}, "id": "DEF03"}, {"geometry": {"type": "Point", "coordinates": [9.9876, 54.0759]}, "type": "Feature", "properties": {"COAST_TYPE": 2, "MOUNT_TYPE": 4, "NAME_LATN": "Neum\u00fcnster, Kreisfreie Stadt", "CNTR_CODE": "DE", "FID": "DEF04", "NUTS_ID": "DEF04", "NUTS_NAME": "Neum\u00fcnster, Kreisfreie Stadt", "LEVL_CODE": 3, "URBN_TYPE": 2}, "id": "DEF04"}, {"geometry": {"type": "Point", "coordinates": [9.1134, 54.1311]}, "type": "Feature", "properties": {"COAST_TYPE": 1, "MOUNT_TYPE": 4, "NAME_LATN": "Dithmarschen", "CNTR_CODE": "DE", "FID": "DEF05", "NUTS_ID": "DEF05", "NUTS_NAME": "Dithmarschen", "LEVL_CODE": 3, "URBN_TYPE": 3}, "id": "DEF05"}, {"geometry": {"type": "Point", "coordinates": [10.6018, 53.5834]}, "type": "Feature", "properties": {"COAST_TYPE": 3, "MOUNT_TYPE": 4, "NAME_LATN": "Herzogtum Lauenburg", "CNTR_CODE": "DE", "FID": "DEF06", "NUTS_ID": "DEF06", "NUTS_NAME": "Herzogtum Lauenburg", "LEVL_CODE": 3, "URBN_TYPE": 2}, "id": "DEF06"}, {"geometry": {"type": "Point", "coordinates": [8.9686, 54.626]}, "type": "Feature", "properties": {"COAST_TYPE": 1, "MOUNT_TYPE": 4, "NAME_LATN": "Nordfriesland", "CNTR_CODE": "DE", "FID": "DEF07", "NUTS_ID": "DEF07", "NUTS_NAME": "Nordfriesland", "LEVL_CODE": 3, "URBN_TYPE": 3}, "id": "DEF07"}, {"geometry": {"type": "Point", "coordinates": [10.7223, 54.1287]}, "type": "Feature", "properties": {"COAST_TYPE": 1, "MOUNT_TYPE": 4, "NAME_LATN": "Ostholstein", "CNTR_CODE": "DE", "FID": "DEF08", "NUTS_ID": "DEF08", "NUTS_NAME": "Ostholstein", "LEVL_CODE": 3, "URBN_TYPE": 2}, "id": "DEF08"}, {"geometry": {"type": "Point", "coordinates": [9.7333, 53.7118]}, "type": "Feature", "properties": {"COAST_TYPE": 1, "MOUNT_TYPE": 4, "NAME_LATN": "Pinneberg", "CNTR_CODE": "DE", "FID": "DEF09", "NUTS_ID": "DEF09", "NUTS_NAME": "Pinneberg", "LEVL_CODE": 3, "URBN_TYPE": 1}, "id": "DEF09"}, {"geometry": {"type": "Point", "coordinates": [10.3394, 54.2122]}, "type": "Feature", "properties": {"COAST_TYPE": 1, "MOUNT_TYPE": 4, "NAME_LATN": "Pl\u00f6n", "CNTR_CODE": "DE", "FID": "DEF0A", "NUTS_ID": "DEF0A", "NUTS_NAME": "Pl\u00f6n", "LEVL_CODE": 3, "URBN_TYPE": 1}, "id": "DEF0A"}, {"geometry": {"type": "Point", "coordinates": [9.7664, 54.2695]}, "type": "Feature", "properties": {"COAST_TYPE": 1, "MOUNT_TYPE": 4, "NAME_LATN": "Rendsburg-Eckernf\u00f6rde", "CNTR_CODE": "DE", "FID": "DEF0B", "NUTS_ID": "DEF0B", "NUTS_NAME": "Rendsburg-Eckernf\u00f6rde", "LEVL_CODE": 3, "URBN_TYPE": 2}, "id": "DEF0B"}, {"geometry": {"type": "Point", "coordinates": [9.4555, 54.6078]}, "type": "Feature", "properties": {"COAST_TYPE": 1, "MOUNT_TYPE": 4, "NAME_LATN": "Schleswig-Flensburg", "CNTR_CODE": "DE", "FID": "DEF0C", "NUTS_ID": "DEF0C", "NUTS_NAME": "Schleswig-Flensburg", "LEVL_CODE": 3, "URBN_TYPE": 2}, "id": "DEF0C"}, {"geometry": {"type": "Point", "coordinates": [10.128, 53.9185]}, "type": "Feature", "properties": {"COAST_TYPE": 3, "MOUNT_TYPE": 4, "NAME_LATN": "Segeberg", "CNTR_CODE": "DE", "FID": "DEF0D", "NUTS_ID": "DEF0D", "NUTS_NAME": "Segeberg", "LEVL_CODE": 3, "URBN_TYPE": 2}, "id": "DEF0D"}, {"geometry": {"type": "Point", "coordinates": [9.5005, 53.9173]}, "type": "Feature", "properties": {"COAST_TYPE": 2, "MOUNT_TYPE": 4, "NAME_LATN": "Steinburg", "CNTR_CODE": "DE", "FID": "DEF0E", "NUTS_ID": "DEF0E", "NUTS_NAME": "Steinburg", "LEVL_CODE": 3, "URBN_TYPE": 2}, "id": "DEF0E"}, {"geometry": {"type": "Point", "coordinates": [10.3401, 53.7297]}, "type": "Feature", "properties": {"COAST_TYPE": 3, "MOUNT_TYPE": 4, "NAME_LATN": "Stormarn", "CNTR_CODE": "DE", "FID": "DEF0F", "NUTS_ID": "DEF0F", "NUTS_NAME": "Stormarn", "LEVL_CODE": 3, "URBN_TYPE": 2}, "id": "DEF0F"}, {"geometry": {"type": "Point", "coordinates": [11.019, 50.9705]}, "type": "Feature", "properties": {"COAST_TYPE": 3, "MOUNT_TYPE": 4, "NAME_LATN": "Erfurt, Kreisfreie Stadt", "CNTR_CODE": "DE", "FID": "DEG01", "NUTS_ID": "DEG01", "NUTS_NAME": "Erfurt, Kreisfreie Stadt", "LEVL_CODE": 3, "URBN_TYPE": 2}, "id": "DEG01"}, {"geometry": {"type": "Point", "coordinates": [12.089, 50.9231]}, "type": "Feature", "properties": {"COAST_TYPE": 3, "MOUNT_TYPE": 4, "NAME_LATN": "Gera, Kreisfreie Stadt", "CNTR_CODE": "DE", "FID": "DEG02", "NUTS_ID": "DEG02", "NUTS_NAME": "Gera, Kreisfreie Stadt", "LEVL_CODE": 3, "URBN_TYPE": 2}, "id": "DEG02"}, {"geometry": {"type": "Point", "coordinates": [11.5646, 50.9349]}, "type": "Feature", "properties": {"COAST_TYPE": 3, "MOUNT_TYPE": 1, "NAME_LATN": "Jena, Kreisfreie Stadt", "CNTR_CODE": "DE", "FID": "DEG03", "NUTS_ID": "DEG03", "NUTS_NAME": "Jena, Kreisfreie Stadt", "LEVL_CODE": 3, "URBN_TYPE": 2}, "id": "DEG03"}, {"geometry": {"type": "Point", "coordinates": [10.7083, 50.6155]}, "type": "Feature", "properties": {"COAST_TYPE": 3, "MOUNT_TYPE": 3, "NAME_LATN": "Suhl, Kreisfreie Stadt", "CNTR_CODE": "DE", "FID": "DEG04", "NUTS_ID": "DEG04", "NUTS_NAME": "Suhl, Kreisfreie Stadt", "LEVL_CODE": 3, "URBN_TYPE": 2}, "id": "DEG04"}, {"geometry": {"type": "Point", "coordinates": [11.3211, 50.9756]}, "type": "Feature", "properties": {"COAST_TYPE": 3, "MOUNT_TYPE": 4, "NAME_LATN": "Weimar, Kreisfreie Stadt", "CNTR_CODE": "DE", "FID": "DEG05", "NUTS_ID": "DEG05", "NUTS_NAME": "Weimar, Kreisfreie Stadt", "LEVL_CODE": 3, "URBN_TYPE": 2}, "id": "DEG05"}, {"geometry": {"type": "Point", "coordinates": [10.264, 51.3828]}, "type": "Feature", "properties": {"COAST_TYPE": 3, "MOUNT_TYPE": 4, "NAME_LATN": "Eichsfeld", "CNTR_CODE": "DE", "FID": "DEG06", "NUTS_ID": "DEG06", "NUTS_NAME": "Eichsfeld", "LEVL_CODE": 3, "URBN_TYPE": 3}, "id": "DEG06"}, {"geometry": {"type": "Point", "coordinates": [10.7289, 51.5018]}, "type": "Feature", "properties": {"COAST_TYPE": 3, "MOUNT_TYPE": 4, "NAME_LATN": "Nordhausen", "CNTR_CODE": "DE", "FID": "DEG07", "NUTS_ID": "DEG07", "NUTS_NAME": "Nordhausen", "LEVL_CODE": 3, "URBN_TYPE": 2}, "id": "DEG07"}, {"geometry": {"type": "Point", "coordinates": [10.5565, 51.1796]}, "type": "Feature", "properties": {"COAST_TYPE": 3, "MOUNT_TYPE": 4, "NAME_LATN": "Unstrut-Hainich-Kreis", "CNTR_CODE": "DE", "FID": "DEG09", "NUTS_ID": "DEG09", "NUTS_NAME": "Unstrut-Hainich-Kreis", "LEVL_CODE": 3, "URBN_TYPE": 3}, "id": "DEG09"}, {"geometry": {"type": "Point", "coordinates": [10.9741, 51.3268]}, "type": "Feature", "properties": {"COAST_TYPE": 3, "MOUNT_TYPE": 4, "NAME_LATN": "Kyffh\u00e4userkreis", "CNTR_CODE": "DE", "FID": "DEG0A", "NUTS_ID": "DEG0A", "NUTS_NAME": "Kyffh\u00e4userkreis", "LEVL_CODE": 3, "URBN_TYPE": 3}, "id": "DEG0A"}, {"geometry": {"type": "Point", "coordinates": [10.4022, 50.6368]}, "type": "Feature", "properties": {"COAST_TYPE": 3, "MOUNT_TYPE": 3, "NAME_LATN": "Schmalkalden-Meiningen", "CNTR_CODE": "DE", "FID": "DEG0B", "NUTS_ID": "DEG0B", "NUTS_NAME": "Schmalkalden-Meiningen", "LEVL_CODE": 3, "URBN_TYPE": 2}, "id": "DEG0B"}, {"geometry": {"type": "Point", "coordinates": [10.6992, 50.9104]}, "type": "Feature", "properties": {"COAST_TYPE": 3, "MOUNT_TYPE": 4, "NAME_LATN": "Gotha", "CNTR_CODE": "DE", "FID": "DEG0C", "NUTS_ID": "DEG0C", "NUTS_NAME": "Gotha", "LEVL_CODE": 3, "URBN_TYPE": 3}, "id": "DEG0C"}, {"geometry": {"type": "Point", "coordinates": [11.1531, 51.1429]}, "type": "Feature", "properties": {"COAST_TYPE": 3, "MOUNT_TYPE": 4, "NAME_LATN": "S\u00f6mmerda", "CNTR_CODE": "DE", "FID": "DEG0D", "NUTS_ID": "DEG0D", "NUTS_NAME": "S\u00f6mmerda", "LEVL_CODE": 3, "URBN_TYPE": 2}, "id": "DEG0D"}, {"geometry": {"type": "Point", "coordinates": [10.7305, 50.4355]}, "type": "Feature", "properties": {"COAST_TYPE": 3, "MOUNT_TYPE": 2, "NAME_LATN": "Hildburghausen", "CNTR_CODE": "DE", "FID": "DEG0E", "NUTS_ID": "DEG0E", "NUTS_NAME": "Hildburghausen", "LEVL_CODE": 3, "URBN_TYPE": 3}, "id": "DEG0E"}, {"geometry": {"type": "Point", "coordinates": [10.9671, 50.7399]}, "type": "Feature", "properties": {"COAST_TYPE": 3, "MOUNT_TYPE": 3, "NAME_LATN": "Ilm-Kreis", "CNTR_CODE": "DE", "FID": "DEG0F", "NUTS_ID": "DEG0F", "NUTS_NAME": "Ilm-Kreis", "LEVL_CODE": 3, "URBN_TYPE": 3}, "id": "DEG0F"}, {"geometry": {"type": "Point", "coordinates": [11.5503, 51.0456]}, "type": "Feature", "properties": {"COAST_TYPE": 3, "MOUNT_TYPE": 4, "NAME_LATN": "Weimarer Land", "CNTR_CODE": "DE", "FID": "DEG0G", "NUTS_ID": "DEG0G", "NUTS_NAME": "Weimarer Land", "LEVL_CODE": 3, "URBN_TYPE": 2}, "id": "DEG0G"}, {"geometry": {"type": "Point", "coordinates": [11.1008, 50.4382]}, "type": "Feature", "properties": {"COAST_TYPE": 3, "MOUNT_TYPE": 3, "NAME_LATN": "Sonneberg", "CNTR_CODE": "DE", "FID": "DEG0H", "NUTS_ID": "DEG0H", "NUTS_NAME": "Sonneberg", "LEVL_CODE": 3, "URBN_TYPE": 3}, "id": "DEG0H"}, {"geometry": {"type": "Point", "coordinates": [11.3187, 50.6374]}, "type": "Feature", "properties": {"COAST_TYPE": 3, "MOUNT_TYPE": 3, "NAME_LATN": "Saalfeld-Rudolstadt", "CNTR_CODE": "DE", "FID": "DEG0I", "NUTS_ID": "DEG0I", "NUTS_NAME": "Saalfeld-Rudolstadt", "LEVL_CODE": 3, "URBN_TYPE": 2}, "id": "DEG0I"}, {"geometry": {"type": "Point", "coordinates": [11.7272, 50.8999]}, "type": "Feature", "properties": {"COAST_TYPE": 3, "MOUNT_TYPE": 4, "NAME_LATN": "Saale-Holzland-Kreis", "CNTR_CODE": "DE", "FID": "DEG0J", "NUTS_ID": "DEG0J", "NUTS_NAME": "Saale-Holzland-Kreis", "LEVL_CODE": 3, "URBN_TYPE": 2}, "id": "DEG0J"}, {"geometry": {"type": "Point", "coordinates": [11.7275, 50.5792]}, "type": "Feature", "properties": {"COAST_TYPE": 3, "MOUNT_TYPE": 4, "NAME_LATN": "Saale-Orla-Kreis", "CNTR_CODE": "DE", "FID": "DEG0K", "NUTS_ID": "DEG0K", "NUTS_NAME": "Saale-Orla-Kreis", "LEVL_CODE": 3, "URBN_TYPE": 3}, "id": "DEG0K"}, {"geometry": {"type": "Point", "coordinates": [12.0927, 50.7025]}, "type": "Feature", "properties": {"COAST_TYPE": 3, "MOUNT_TYPE": 4, "NAME_LATN": "Greiz", "CNTR_CODE": "DE", "FID": "DEG0L", "NUTS_ID": "DEG0L", "NUTS_NAME": "Greiz", "LEVL_CODE": 3, "URBN_TYPE": 2}, "id": "DEG0L"}, {"geometry": {"type": "Point", "coordinates": [12.3995, 50.9501]}, "type": "Feature", "properties": {"COAST_TYPE": 3, "MOUNT_TYPE": 4, "NAME_LATN": "Altenburger Land", "CNTR_CODE": "DE", "FID": "DEG0M", "NUTS_ID": "DEG0M", "NUTS_NAME": "Altenburger Land", "LEVL_CODE": 3, "URBN_TYPE": 2}, "id": "DEG0M"}, {"geometry": {"type": "Point", "coordinates": [10.3211, 50.9883]}, "type": "Feature", "properties": {"COAST_TYPE": 3, "MOUNT_TYPE": 4, "NAME_LATN": "Eisenach, Kreisfreie Stadt", "CNTR_CODE": "DE", "FID": "DEG0N", "NUTS_ID": "DEG0N", "NUTS_NAME": "Eisenach, Kreisfreie Stadt", "LEVL_CODE": 3, "URBN_TYPE": 3}, "id": "DEG0N"}, {"geometry": {"type": "Point", "coordinates": [10.2176, 50.8904]}, "type": "Feature", "properties": {"COAST_TYPE": 3, "MOUNT_TYPE": 4, "NAME_LATN": "Wartburgkreis", "CNTR_CODE": "DE", "FID": "DEG0P", "NUTS_ID": "DEG0P", "NUTS_NAME": "Wartburgkreis", "LEVL_CODE": 3, "URBN_TYPE": 3}, "id": "DEG0P"}, {"geometry": {"type": "Point", "coordinates": [12.5934, 55.624]}, "type": "Feature", "properties": {"COAST_TYPE": 1, "MOUNT_TYPE": 4, "NAME_LATN": "Byen K\u00f8benhavn", "CNTR_CODE": "DK", "FID": "DK011", "NUTS_ID": "DK011", "NUTS_NAME": "Byen K\u00f8benhavn", "LEVL_CODE": 3, "URBN_TYPE": 1}, "id": "DK011"}, {"geometry": {"type": "Point", "coordinates": [12.419, 55.6853]}, "type": "Feature", "properties": {"COAST_TYPE": 1, "MOUNT_TYPE": 4, "NAME_LATN": "K\u00f8benhavns omegn", "CNTR_CODE": "DK", "FID": "DK012", "NUTS_ID": "DK012", "NUTS_NAME": "K\u00f8benhavns omegn", "LEVL_CODE": 3, "URBN_TYPE": 1}, "id": "DK012"}, {"geometry": {"type": "Point", "coordinates": [12.293, 55.9121]}, "type": "Feature", "properties": {"COAST_TYPE": 1, "MOUNT_TYPE": 4, "NAME_LATN": "Nordsj\u00e6lland", "CNTR_CODE": "DK", "FID": "DK013", "NUTS_ID": "DK013", "NUTS_NAME": "Nordsj\u00e6lland", "LEVL_CODE": 3, "URBN_TYPE": 2}, "id": "DK013"}, {"geometry": {"type": "Point", "coordinates": [14.9214, 55.1222]}, "type": "Feature", "properties": {"COAST_TYPE": 1, "MOUNT_TYPE": 4, "NAME_LATN": "Bornholm", "CNTR_CODE": "DK", "FID": "DK014", "NUTS_ID": "DK014", "NUTS_NAME": "Bornholm", "LEVL_CODE": 3, "URBN_TYPE": 3}, "id": "DK014"}, {"geometry": {"type": "Point", "coordinates": [12.0799, 55.5797]}, "type": "Feature", "properties": {"COAST_TYPE": 1, "MOUNT_TYPE": 4, "NAME_LATN": "\u00d8stsj\u00e6lland", "CNTR_CODE": "DK", "FID": "DK021", "NUTS_ID": "DK021", "NUTS_NAME": "\u00d8stsj\u00e6lland", "LEVL_CODE": 3, "URBN_TYPE": 2}, "id": "DK021"}, {"geometry": {"type": "Point", "coordinates": [11.6823, 55.4082]}, "type": "Feature", "properties": {"COAST_TYPE": 1, "MOUNT_TYPE": 4, "NAME_LATN": "Vest- og Sydsj\u00e6lland", "CNTR_CODE": "DK", "FID": "DK022", "NUTS_ID": "DK022", "NUTS_NAME": "Vest- og Sydsj\u00e6lland", "LEVL_CODE": 3, "URBN_TYPE": 3}, "id": "DK022"}, {"geometry": {"type": "Point", "coordinates": [10.5571, 55.2379]}, "type": "Feature", "properties": {"COAST_TYPE": 1, "MOUNT_TYPE": 4, "NAME_LATN": "Fyn", "CNTR_CODE": "DK", "FID": "DK031", "NUTS_ID": "DK031", "NUTS_NAME": "Fyn", "LEVL_CODE": 3, "URBN_TYPE": 2}, "id": "DK031"}, {"geometry": {"type": "Point", "coordinates": [9.0569, 55.4038]}, "type": "Feature", "properties": {"COAST_TYPE": 1, "MOUNT_TYPE": 4, "NAME_LATN": "Sydjylland", "CNTR_CODE": "DK", "FID": "DK032", "NUTS_ID": "DK032", "NUTS_NAME": "Sydjylland", "LEVL_CODE": 3, "URBN_TYPE": 2}, "id": "DK032"}, {"geometry": {"type": "Point", "coordinates": [8.8576, 56.2716]}, "type": "Feature", "properties": {"COAST_TYPE": 1, "MOUNT_TYPE": 4, "NAME_LATN": "Vestjylland", "CNTR_CODE": "DK", "FID": "DK041", "NUTS_ID": "DK041", "NUTS_NAME": "Vestjylland", "LEVL_CODE": 3, "URBN_TYPE": 3}, "id": "DK041"}, {"geometry": {"type": "Point", "coordinates": [10.0178, 56.2136]}, "type": "Feature", "properties": {"COAST_TYPE": 1, "MOUNT_TYPE": 4, "NAME_LATN": "\u00d8stjylland", "CNTR_CODE": "DK", "FID": "DK042", "NUTS_ID": "DK042", "NUTS_NAME": "\u00d8stjylland", "LEVL_CODE": 3, "URBN_TYPE": 2}, "id": "DK042"}, {"geometry": {"type": "Point", "coordinates": [9.953, 57.2719]}, "type": "Feature", "properties": {"COAST_TYPE": 1, "MOUNT_TYPE": 4, "NAME_LATN": "Nordjylland", "CNTR_CODE": "DK", "FID": "DK050", "NUTS_ID": "DK050", "NUTS_NAME": "Nordjylland", "LEVL_CODE": 3, "URBN_TYPE": 3}, "id": "DK050"}, {"geometry": {"type": "Point", "coordinates": [25.3053, 59.2842]}, "type": "Feature", "properties": {"COAST_TYPE": 1, "MOUNT_TYPE": 4, "NAME_LATN": "P\u00f5hja-Eesti", "CNTR_CODE": "EE", "FID": "EE001", "NUTS_ID": "EE001", "NUTS_NAME": "P\u00f5hja-Eesti", "LEVL_CODE": 3, "URBN_TYPE": 1}, "id": "EE001"}, {"geometry": {"type": "Point", "coordinates": [24.3076, 58.5393]}, "type": "Feature", "properties": {"COAST_TYPE": 1, "MOUNT_TYPE": 4, "NAME_LATN": "L\u00e4\u00e4ne-Eesti", "CNTR_CODE": "EE", "FID": "EE004", "NUTS_ID": "EE004", "NUTS_NAME": "L\u00e4\u00e4ne-Eesti", "LEVL_CODE": 3, "URBN_TYPE": 3}, "id": "EE004"}, {"geometry": {"type": "Point", "coordinates": [25.6263, 59.0584]}, "type": "Feature", "properties": {"COAST_TYPE": 1, "MOUNT_TYPE": 4, "NAME_LATN": "Kesk-Eesti", "CNTR_CODE": "EE", "FID": "EE006", "NUTS_ID": "EE006", "NUTS_NAME": "Kesk-Eesti", "LEVL_CODE": 3, "URBN_TYPE": 3}, "id": "EE006"}, {"geometry": {"type": "Point", "coordinates": [27.336, 59.1732]}, "type": "Feature", "properties": {"COAST_TYPE": 1, "MOUNT_TYPE": 4, "NAME_LATN": "Kirde-Eesti", "CNTR_CODE": "EE", "FID": "EE007", "NUTS_ID": "EE007", "NUTS_NAME": "Kirde-Eesti", "LEVL_CODE": 3, "URBN_TYPE": 2}, "id": "EE007"}, {"geometry": {"type": "Point", "coordinates": [26.4951, 58.247]}, "type": "Feature", "properties": {"COAST_TYPE": 3, "MOUNT_TYPE": 4, "NAME_LATN": "L\u00f5una-Eesti", "CNTR_CODE": "EE", "FID": "EE008", "NUTS_ID": "EE008", "NUTS_NAME": "L\u00f5una-Eesti", "LEVL_CODE": 3, "URBN_TYPE": 3}, "id": "EE008"}, {"geometry": {"type": "Point", "coordinates": [23.8012, 38.0451]}, "type": "Feature", "properties": {"COAST_TYPE": 2, "MOUNT_TYPE": 4, "NAME_LATN": "Voreios Tomeas Athinon", "CNTR_CODE": "EL", "FID": "EL301", "NUTS_ID": "EL301", "NUTS_NAME": "\u0392\u03cc\u03c1\u03b5\u03b9\u03bf\u03c2 \u03a4\u03bf\u03bc\u03ad\u03b1\u03c2 \u0391\u03b8\u03b7\u03bd\u03ce\u03bd", "LEVL_CODE": 3, "URBN_TYPE": 1}, "id": "EL301"}, {"geometry": {"type": "Point", "coordinates": [23.6742, 38.0192]}, "type": "Feature", "properties": {"COAST_TYPE": 1, "MOUNT_TYPE": 4, "NAME_LATN": "Dytikos Tomeas Athinon", "CNTR_CODE": "EL", "FID": "EL302", "NUTS_ID": "EL302", "NUTS_NAME": "\u0394\u03c5\u03c4\u03b9\u03ba\u03cc\u03c2 \u03a4\u03bf\u03bc\u03ad\u03b1\u03c2 \u0391\u03b8\u03b7\u03bd\u03ce\u03bd", "LEVL_CODE": 3, "URBN_TYPE": 1}, "id": "EL302"}, {"geometry": {"type": "Point", "coordinates": [23.7566, 37.9791]}, "type": "Feature", "properties": {"COAST_TYPE": 2, "MOUNT_TYPE": 4, "NAME_LATN": "Kentrikos Tomeas Athinon", "CNTR_CODE": "EL", "FID": "EL303", "NUTS_ID": "EL303", "NUTS_NAME": "\u039a\u03b5\u03bd\u03c4\u03c1\u03b9\u03ba\u03cc\u03c2 \u03a4\u03bf\u03bc\u03ad\u03b1\u03c2 \u0391\u03b8\u03b7\u03bd\u03ce\u03bd", "LEVL_CODE": 3, "URBN_TYPE": 1}, "id": "EL303"}, {"geometry": {"type": "Point", "coordinates": [23.7395, 37.9016]}, "type": "Feature", "properties": {"COAST_TYPE": 1, "MOUNT_TYPE": 4, "NAME_LATN": "Notios Tomeas Athinon", "CNTR_CODE": "EL", "FID": "EL304", "NUTS_ID": "EL304", "NUTS_NAME": "\u039d\u03cc\u03c4\u03b9\u03bf\u03c2 \u03a4\u03bf\u03bc\u03ad\u03b1\u03c2 \u0391\u03b8\u03b7\u03bd\u03ce\u03bd", "LEVL_CODE": 3, "URBN_TYPE": 1}, "id": "EL304"}, {"geometry": {"type": "Point", "coordinates": [23.9407, 37.8959]}, "type": "Feature", "properties": {"COAST_TYPE": 1, "MOUNT_TYPE": 2, "NAME_LATN": "Anatoliki Attiki", "CNTR_CODE": "EL", "FID": "EL305", "NUTS_ID": "EL305", "NUTS_NAME": "\u0391\u03bd\u03b1\u03c4\u03bf\u03bb\u03b9\u03ba\u03ae \u0391\u03c4\u03c4\u03b9\u03ba\u03ae", "LEVL_CODE": 3, "URBN_TYPE": 1}, "id": "EL305"}, {"geometry": {"type": "Point", "coordinates": [23.3965, 38.0858]}, "type": "Feature", "properties": {"COAST_TYPE": 1, "MOUNT_TYPE": 2, "NAME_LATN": "Dytiki Attiki", "CNTR_CODE": "EL", "FID": "EL306", "NUTS_ID": "EL306", "NUTS_NAME": "\u0394\u03c5\u03c4\u03b9\u03ba\u03ae \u0391\u03c4\u03c4\u03b9\u03ba\u03ae", "LEVL_CODE": 3, "URBN_TYPE": 1}, "id": "EL306"}, {"geometry": {"type": "Point", "coordinates": [22.9824, 36.2443]}, "type": "Feature", "properties": {"COAST_TYPE": 1, "MOUNT_TYPE": 2, "NAME_LATN": "Peiraias, Nisoi", "CNTR_CODE": "EL", "FID": "EL307", "NUTS_ID": "EL307", "NUTS_NAME": "\u03a0\u03b5\u03b9\u03c1\u03b1\u03b9\u03ac\u03c2, \u039d\u03ae\u03c3\u03bf\u03b9", "LEVL_CODE": 3, "URBN_TYPE": 1}, "id": "EL307"}, {"geometry": {"type": "Point", "coordinates": [26.0189, 39.1974]}, "type": "Feature", "properties": {"COAST_TYPE": 1, "MOUNT_TYPE": 3, "NAME_LATN": "Lesvos, Limnos", "CNTR_CODE": "EL", "FID": "EL411", "NUTS_ID": "EL411", "NUTS_NAME": "\u039b\u03ad\u03c3\u03b2\u03bf\u03c2, \u039b\u03ae\u03bc\u03bd\u03bf\u03c2", "LEVL_CODE": 3, "URBN_TYPE": 3}, "id": "EL411"}, {"geometry": {"type": "Point", "coordinates": [26.806, 37.7313]}, "type": "Feature", "properties": {"COAST_TYPE": 1, "MOUNT_TYPE": 3, "NAME_LATN": "Ikaria, Samos", "CNTR_CODE": "EL", "FID": "EL412", "NUTS_ID": "EL412", "NUTS_NAME": "\u0399\u03ba\u03b1\u03c1\u03af\u03b1, \u03a3\u03ac\u03bc\u03bf\u03c2", "LEVL_CODE": 3, "URBN_TYPE": 3}, "id": "EL412"}, {"geometry": {"type": "Point", "coordinates": [26.0265, 38.4077]}, "type": "Feature", "properties": {"COAST_TYPE": 1, "MOUNT_TYPE": 2, "NAME_LATN": "Chios", "CNTR_CODE": "EL", "FID": "EL413", "NUTS_ID": "EL413", "NUTS_NAME": "\u03a7\u03af\u03bf\u03c2", "LEVL_CODE": 3, "URBN_TYPE": 2}, "id": "EL413"}, {"geometry": {"type": "Point", "coordinates": [27.9147, 36.1601]}, "type": "Feature", "properties": {"COAST_TYPE": 1, "MOUNT_TYPE": 2, "NAME_LATN": "Kalymnos, Karpathos, Kos, Rodos", "CNTR_CODE": "EL", "FID": "EL421", "NUTS_ID": "EL421", "NUTS_NAME": "\u039a\u03ac\u03bb\u03c5\u03bc\u03bd\u03bf\u03c2, \u039a\u03ac\u03c1\u03c0\u03b1\u03b8\u03bf\u03c2, \u039a\u03c9\u03c2, \u03a1\u03cc\u03b4\u03bf\u03c2", "LEVL_CODE": 3, "URBN_TYPE": 2}, "id": "EL421"}, {"geometry": {"type": "Point", "coordinates": [25.48, 37.0472]}, "type": "Feature", "properties": {"COAST_TYPE": 1, "MOUNT_TYPE": 2, "NAME_LATN": "Andros, Thira, Kea, Milos, Mykonos, Naxos, Paros,  Syros, Tinos", "CNTR_CODE": "EL", "FID": "EL422", "NUTS_ID": "EL422", "NUTS_NAME": "\u0386\u03bd\u03b4\u03c1\u03bf\u03c2, \u0398\u03ae\u03c1\u03b1, \u039a\u03ad\u03b1, \u039c\u03ae\u03bb\u03bf\u03c2, \u039c\u03cd\u03ba\u03bf\u03bd\u03bf\u03c2, \u039d\u03ac\u03be\u03bf\u03c2, \u03a0\u03ac\u03c1\u03bf\u03c2, \u03a3\u03cd\u03c1\u03bf\u03c2, \u03a4\u03ae\u03bd\u03bf\u03c2", "LEVL_CODE": 3, "URBN_TYPE": 3}, "id": "EL422"}, {"geometry": {"type": "Point", "coordinates": [25.1337, 35.1469]}, "type": "Feature", "properties": {"COAST_TYPE": 1, "MOUNT_TYPE": 2, "NAME_LATN": "Irakleio", "CNTR_CODE": "EL", "FID": "EL431", "NUTS_ID": "EL431", "NUTS_NAME": "\u0397\u03c1\u03ac\u03ba\u03bb\u03b5\u03b9\u03bf", "LEVL_CODE": 3, "URBN_TYPE": 2}, "id": "EL431"}, {"geometry": {"type": "Point", "coordinates": [26.0291, 35.1076]}, "type": "Feature", "properties": {"COAST_TYPE": 1, "MOUNT_TYPE": 2, "NAME_LATN": "Lasithi", "CNTR_CODE": "EL", "FID": "EL432", "NUTS_ID": "EL432", "NUTS_NAME": "\u039b\u03b1\u03c3\u03af\u03b8\u03b9", "LEVL_CODE": 3, "URBN_TYPE": 3}, "id": "EL432"}, {"geometry": {"type": "Point", "coordinates": [24.5993, 35.2638]}, "type": "Feature", "properties": {"COAST_TYPE": 1, "MOUNT_TYPE": 3, "NAME_LATN": "Rethymni", "CNTR_CODE": "EL", "FID": "EL433", "NUTS_ID": "EL433", "NUTS_NAME": "\u03a1\u03b5\u03b8\u03cd\u03bc\u03bd\u03b7", "LEVL_CODE": 3, "URBN_TYPE": 3}, "id": "EL433"}, {"geometry": {"type": "Point", "coordinates": [23.9478, 35.3603]}, "type": "Feature", "properties": {"COAST_TYPE": 1, "MOUNT_TYPE": 2, "NAME_LATN": "Chania", "CNTR_CODE": "EL", "FID": "EL434", "NUTS_ID": "EL434", "NUTS_NAME": "\u03a7\u03b1\u03bd\u03b9\u03ac", "LEVL_CODE": 3, "URBN_TYPE": 2}, "id": "EL434"}, {"geometry": {"type": "Point", "coordinates": [26.1538, 41.2036]}, "type": "Feature", "properties": {"COAST_TYPE": 1, "MOUNT_TYPE": 4, "NAME_LATN": "Evros", "CNTR_CODE": "EL", "FID": "EL511", "NUTS_ID": "EL511", "NUTS_NAME": "\u0388\u03b2\u03c1\u03bf\u03c2", "LEVL_CODE": 3, "URBN_TYPE": 2}, "id": "EL511"}, {"geometry": {"type": "Point", "coordinates": [24.8923, 41.1586]}, "type": "Feature", "properties": {"COAST_TYPE": 1, "MOUNT_TYPE": 2, "NAME_LATN": "Xanthi", "CNTR_CODE": "EL", "FID": "EL512", "NUTS_ID": "EL512", "NUTS_NAME": "\u039e\u03ac\u03bd\u03b8\u03b7", "LEVL_CODE": 3, "URBN_TYPE": 2}, "id": "EL512"}, {"geometry": {"type": "Point", "coordinates": [25.5038, 41.1102]}, "type": "Feature", "properties": {"COAST_TYPE": 1, "MOUNT_TYPE": 2, "NAME_LATN": "Rodopi", "CNTR_CODE": "EL", "FID": "EL513", "NUTS_ID": "EL513", "NUTS_NAME": "\u03a1\u03bf\u03b4\u03cc\u03c0\u03b7", "LEVL_CODE": 3, "URBN_TYPE": 3}, "id": "EL513"}, {"geometry": {"type": "Point", "coordinates": [24.204, 41.3128]}, "type": "Feature", "properties": {"COAST_TYPE": 2, "MOUNT_TYPE": 2, "NAME_LATN": "Drama", "CNTR_CODE": "EL", "FID": "EL514", "NUTS_ID": "EL514", "NUTS_NAME": "\u0394\u03c1\u03ac\u03bc\u03b1", "LEVL_CODE": 3, "URBN_TYPE": 2}, "id": "EL514"}, {"geometry": {"type": "Point", "coordinates": [24.3406, 40.9786]}, "type": "Feature", "properties": {"COAST_TYPE": 1, "MOUNT_TYPE": 3, "NAME_LATN": "Thasos, Kavala", "CNTR_CODE": "EL", "FID": "EL515", "NUTS_ID": "EL515", "NUTS_NAME": "\u0398\u03ac\u03c3\u03bf\u03c2, \u039a\u03b1\u03b2\u03ac\u03bb\u03b1", "LEVL_CODE": 3, "URBN_TYPE": 3}, "id": "EL515"}, {"geometry": {"type": "Point", "coordinates": [22.2606, 40.554]}, "type": "Feature", "properties": {"COAST_TYPE": 1, "MOUNT_TYPE": 2, "NAME_LATN": "Imathia", "CNTR_CODE": "EL", "FID": "EL521", "NUTS_ID": "EL521", "NUTS_NAME": "\u0397\u03bc\u03b1\u03b8\u03af\u03b1", "LEVL_CODE": 3, "URBN_TYPE": 2}, "id": "EL521"}, {"geometry": {"type": "Point", "coordinates": [23.1252, 40.695]}, "type": "Feature", "properties": {"COAST_TYPE": 1, "MOUNT_TYPE": 2, "NAME_LATN": "Thessaloniki", "CNTR_CODE": "EL", "FID": "EL522", "NUTS_ID": "EL522", "NUTS_NAME": "\u0398\u03b5\u03c3\u03c3\u03b1\u03bb\u03bf\u03bd\u03af\u03ba\u03b7", "LEVL_CODE": 3, "URBN_TYPE": 1}, "id": "EL522"}, {"geometry": {"type": "Point", "coordinates": [22.7978, 41.0527]}, "type": "Feature", "properties": {"COAST_TYPE": 2, "MOUNT_TYPE": 4, "NAME_LATN": "Kilkis", "CNTR_CODE": "EL", "FID": "EL523", "NUTS_ID": "EL523", "NUTS_NAME": "\u039a\u03b9\u03bb\u03ba\u03af\u03c2", "LEVL_CODE": 3, "URBN_TYPE": 3}, "id": "EL523"}, {"geometry": {"type": "Point", "coordinates": [22.1313, 40.8905]}, "type": "Feature", "properties": {"COAST_TYPE": 2, "MOUNT_TYPE": 2, "NAME_LATN": "Pella", "CNTR_CODE": "EL", "FID": "EL524", "NUTS_ID": "EL524", "NUTS_NAME": "\u03a0\u03ad\u03bb\u03bb\u03b1", "LEVL_CODE": 3, "URBN_TYPE": 3}, "id": "EL524"}, {"geometry": {"type": "Point", "coordinates": [22.4282, 40.2691]}, "type": "Feature", "properties": {"COAST_TYPE": 1, "MOUNT_TYPE": 4, "NAME_LATN": "Pieria", "CNTR_CODE": "EL", "FID": "EL525", "NUTS_ID": "EL525", "NUTS_NAME": "\u03a0\u03b9\u03b5\u03c1\u03af\u03b1", "LEVL_CODE": 3, "URBN_TYPE": 2}, "id": "EL525"}, {"geometry": {"type": "Point", "coordinates": [23.5376, 41.0856]}, "type": "Feature", "properties": {"COAST_TYPE": 1, "MOUNT_TYPE": 2, "NAME_LATN": "Serres", "CNTR_CODE": "EL", "FID": "EL526", "NUTS_ID": "EL526", "NUTS_NAME": "\u03a3\u03ad\u03c1\u03c1\u03b5\u03c2", "LEVL_CODE": 3, "URBN_TYPE": 3}, "id": "EL526"}, {"geometry": {"type": "Point", "coordinates": [23.4324, 40.4128]}, "type": "Feature", "properties": {"COAST_TYPE": 1, "MOUNT_TYPE": 2, "NAME_LATN": "Chalkidiki", "CNTR_CODE": "EL", "FID": "EL527", "NUTS_ID": "EL527", "NUTS_NAME": "\u03a7\u03b1\u03bb\u03ba\u03b9\u03b4\u03b9\u03ba\u03ae", "LEVL_CODE": 3, "URBN_TYPE": 3}, "id": "EL527"}, {"geometry": {"type": "Point", "coordinates": [21.6126, 40.2023]}, "type": "Feature", "properties": {"COAST_TYPE": 3, "MOUNT_TYPE": 3, "NAME_LATN": "Grevena, Kozani", "CNTR_CODE": "EL", "FID": "EL531", "NUTS_ID": "EL531", "NUTS_NAME": "\u0393\u03c1\u03b5\u03b2\u03b5\u03bd\u03ac, \u039a\u03bf\u03b6\u03ac\u03bd\u03b7", "LEVL_CODE": 3, "URBN_TYPE": 3}, "id": "EL531"}, {"geometry": {"type": "Point", "coordinates": [21.1485, 40.4647]}, "type": "Feature", "properties": {"COAST_TYPE": 3, "MOUNT_TYPE": 3, "NAME_LATN": "Kastoria", "CNTR_CODE": "EL", "FID": "EL532", "NUTS_ID": "EL532", "NUTS_NAME": "\u039a\u03b1\u03c3\u03c4\u03bf\u03c1\u03b9\u03ac", "LEVL_CODE": 3, "URBN_TYPE": 2}, "id": "EL532"}, {"geometry": {"type": "Point", "coordinates": [21.4299, 40.7541]}, "type": "Feature", "properties": {"COAST_TYPE": 3, "MOUNT_TYPE": 3, "NAME_LATN": "Florina", "CNTR_CODE": "EL", "FID": "EL533", "NUTS_ID": "EL533", "NUTS_NAME": "\u03a6\u03bb\u03ce\u03c1\u03b9\u03bd\u03b1", "LEVL_CODE": 3, "URBN_TYPE": 3}, "id": "EL533"}, {"geometry": {"type": "Point", "coordinates": [20.9663, 39.2373]}, "type": "Feature", "properties": {"COAST_TYPE": 1, "MOUNT_TYPE": 2, "NAME_LATN": "Arta, Preveza", "CNTR_CODE": "EL", "FID": "EL541", "NUTS_ID": "EL541", "NUTS_NAME": "\u0386\u03c1\u03c4\u03b1, \u03a0\u03c1\u03ad\u03b2\u03b5\u03b6\u03b1", "LEVL_CODE": 3, "URBN_TYPE": 3}, "id": "EL541"}, {"geometry": {"type": "Point", "coordinates": [20.4014, 39.5259]}, "type": "Feature", "properties": {"COAST_TYPE": 1, "MOUNT_TYPE": 3, "NAME_LATN": "Thesprotia", "CNTR_CODE": "EL", "FID": "EL542", "NUTS_ID": "EL542", "NUTS_NAME": "\u0398\u03b5\u03c3\u03c0\u03c1\u03c9\u03c4\u03af\u03b1", "LEVL_CODE": 3, "URBN_TYPE": 3}, "id": "EL542"}, {"geometry": {"type": "Point", "coordinates": [20.8113, 39.8021]}, "type": "Feature", "properties": {"COAST_TYPE": 3, "MOUNT_TYPE": 3, "NAME_LATN": "Ioannina", "CNTR_CODE": "EL", "FID": "EL543", "NUTS_ID": "EL543", "NUTS_NAME": "\u0399\u03c9\u03ac\u03bd\u03bd\u03b9\u03bd\u03b1", "LEVL_CODE": 3, "URBN_TYPE": 2}, "id": "EL543"}, {"geometry": {"type": "Point", "coordinates": [21.7057, 39.5008]}, "type": "Feature", "properties": {"COAST_TYPE": 3, "MOUNT_TYPE": 2, "NAME_LATN": "Karditsa, Trikala", "CNTR_CODE": "EL", "FID": "EL611", "NUTS_ID": "EL611", "NUTS_NAME": "\u039a\u03b1\u03c1\u03b4\u03af\u03c4\u03c3\u03b1, \u03a4\u03c1\u03af\u03ba\u03b1\u03bb\u03b1", "LEVL_CODE": 3, "URBN_TYPE": 3}, "id": "EL611"}, {"geometry": {"type": "Point", "coordinates": [22.4055, 39.6943]}, "type": "Feature", "properties": {"COAST_TYPE": 1, "MOUNT_TYPE": 2, "NAME_LATN": "Larisa", "CNTR_CODE": "EL", "FID": "EL612", "NUTS_ID": "EL612", "NUTS_NAME": "\u039b\u03ac\u03c1\u03b9\u03c3\u03b1", "LEVL_CODE": 3, "URBN_TYPE": 2}, "id": "EL612"}, {"geometry": {"type": "Point", "coordinates": [22.6523, 39.1903]}, "type": "Feature", "properties": {"COAST_TYPE": 1, "MOUNT_TYPE": 2, "NAME_LATN": "Magnisia, Sporades", "CNTR_CODE": "EL", "FID": "EL613", "NUTS_ID": "EL613", "NUTS_NAME": "\u039c\u03b1\u03b3\u03bd\u03b7\u03c3\u03af\u03b1, \u03a3\u03c0\u03bf\u03c1\u03ac\u03b4\u03b5\u03c2", "LEVL_CODE": 3, "URBN_TYPE": 2}, "id": "EL613"}, {"geometry": {"type": "Point", "coordinates": [20.7642, 37.7923]}, "type": "Feature", "properties": {"COAST_TYPE": 1, "MOUNT_TYPE": 2, "NAME_LATN": "Zakynthos", "CNTR_CODE": "EL", "FID": "EL621", "NUTS_ID": "EL621", "NUTS_NAME": "\u0396\u03ac\u03ba\u03c5\u03bd\u03b8\u03bf\u03c2", "LEVL_CODE": 3, "URBN_TYPE": 3}, "id": "EL621"}, {"geometry": {"type": "Point", "coordinates": [19.7805, 39.6984]}, "type": "Feature", "properties": {"COAST_TYPE": 1, "MOUNT_TYPE": 4, "NAME_LATN": "Kerkyra", "CNTR_CODE": "EL", "FID": "EL622", "NUTS_ID": "EL622", "NUTS_NAME": "\u039a\u03ad\u03c1\u03ba\u03c5\u03c1\u03b1", "LEVL_CODE": 3, "URBN_TYPE": 3}, "id": "EL622"}, {"geometry": {"type": "Point", "coordinates": [20.5459, 38.2459]}, "type": "Feature", "properties": {"COAST_TYPE": 1, "MOUNT_TYPE": 3, "NAME_LATN": "Ithaki, Kefallinia", "CNTR_CODE": "EL", "FID": "EL623", "NUTS_ID": "EL623", "NUTS_NAME": "\u0399\u03b8\u03ac\u03ba\u03b7, \u039a\u03b5\u03c6\u03b1\u03bb\u03bb\u03b7\u03bd\u03af\u03b1", "LEVL_CODE": 3, "URBN_TYPE": 3}, "id": "EL623"}, {"geometry": {"type": "Point", "coordinates": [20.6494, 38.7128]}, "type": "Feature", "properties": {"COAST_TYPE": 1, "MOUNT_TYPE": 3, "NAME_LATN": "Lefkada", "CNTR_CODE": "EL", "FID": "EL624", "NUTS_ID": "EL624", "NUTS_NAME": "\u039b\u03b5\u03c5\u03ba\u03ac\u03b4\u03b1", "LEVL_CODE": 3, "URBN_TYPE": 3}, "id": "EL624"}, {"geometry": {"type": "Point", "coordinates": [21.3834, 38.6849]}, "type": "Feature", "properties": {"COAST_TYPE": 1, "MOUNT_TYPE": 2, "NAME_LATN": "Aitoloakarnania", "CNTR_CODE": "EL", "FID": "EL631", "NUTS_ID": "EL631", "NUTS_NAME": "\u0391\u03b9\u03c4\u03c9\u03bb\u03bf\u03b1\u03ba\u03b1\u03c1\u03bd\u03b1\u03bd\u03af\u03b1", "LEVL_CODE": 3, "URBN_TYPE": 3}, "id": "EL631"}, {"geometry": {"type": "Point", "coordinates": [21.94, 38.0533]}, "type": "Feature", "properties": {"COAST_TYPE": 1, "MOUNT_TYPE": 2, "NAME_LATN": "Achaia", "CNTR_CODE": "EL", "FID": "EL632", "NUTS_ID": "EL632", "NUTS_NAME": "\u0391\u03c7\u03b1\u0390\u03b1", "LEVL_CODE": 3, "URBN_TYPE": 2}, "id": "EL632"}, {"geometry": {"type": "Point", "coordinates": [21.5796, 37.7287]}, "type": "Feature", "properties": {"COAST_TYPE": 1, "MOUNT_TYPE": 4, "NAME_LATN": "Ileia", "CNTR_CODE": "EL", "FID": "EL633", "NUTS_ID": "EL633", "NUTS_NAME": "\u0397\u03bb\u03b5\u03af\u03b1", "LEVL_CODE": 3, "URBN_TYPE": 3}, "id": "EL633"}, {"geometry": {"type": "Point", "coordinates": [23.0907, 38.3684]}, "type": "Feature", "properties": {"COAST_TYPE": 1, "MOUNT_TYPE": 3, "NAME_LATN": "Voiotia", "CNTR_CODE": "EL", "FID": "EL641", "NUTS_ID": "EL641", "NUTS_NAME": "\u0392\u03bf\u03b9\u03c9\u03c4\u03af\u03b1", "LEVL_CODE": 3, "URBN_TYPE": 3}, "id": "EL641"}, {"geometry": {"type": "Point", "coordinates": [23.741, 38.5324]}, "type": "Feature", "properties": {"COAST_TYPE": 1, "MOUNT_TYPE": 2, "NAME_LATN": "Evvoia", "CNTR_CODE": "EL", "FID": "EL642", "NUTS_ID": "EL642", "NUTS_NAME": "\u0395\u03cd\u03b2\u03bf\u03b9\u03b1", "LEVL_CODE": 3, "URBN_TYPE": 3}, "id": "EL642"}, {"geometry": {"type": "Point", "coordinates": [21.697, 38.9853]}, "type": "Feature", "properties": {"COAST_TYPE": 2, "MOUNT_TYPE": 3, "NAME_LATN": "Evrytania", "CNTR_CODE": "EL", "FID": "EL643", "NUTS_ID": "EL643", "NUTS_NAME": "\u0395\u03c5\u03c1\u03c5\u03c4\u03b1\u03bd\u03af\u03b1", "LEVL_CODE": 3, "URBN_TYPE": 3}, "id": "EL643"}, {"geometry": {"type": "Point", "coordinates": [22.2503, 39.0198]}, "type": "Feature", "properties": {"COAST_TYPE": 1, "MOUNT_TYPE": 3, "NAME_LATN": "Fthiotida", "CNTR_CODE": "EL", "FID": "EL644", "NUTS_ID": "EL644", "NUTS_NAME": "\u03a6\u03b8\u03b9\u03ce\u03c4\u03b9\u03b4\u03b1", "LEVL_CODE": 3, "URBN_TYPE": 3}, "id": "EL644"}, {"geometry": {"type": "Point", "coordinates": [22.2371, 38.5439]}, "type": "Feature", "properties": {"COAST_TYPE": 1, "MOUNT_TYPE": 3, "NAME_LATN": "Fokida", "CNTR_CODE": "EL", "FID": "EL645", "NUTS_ID": "EL645", "NUTS_NAME": "\u03a6\u03c9\u03ba\u03af\u03b4\u03b1", "LEVL_CODE": 3, "URBN_TYPE": 3}, "id": "EL645"}, {"geometry": {"type": "Point", "coordinates": [22.4963, 37.5398]}, "type": "Feature", "properties": {"COAST_TYPE": 1, "MOUNT_TYPE": 3, "NAME_LATN": "Argolida, Arkadia", "CNTR_CODE": "EL", "FID": "EL651", "NUTS_ID": "EL651", "NUTS_NAME": "\u0391\u03c1\u03b3\u03bf\u03bb\u03af\u03b4\u03b1, \u0391\u03c1\u03ba\u03b1\u03b4\u03af\u03b1", "LEVL_CODE": 3, "URBN_TYPE": 3}, "id": "EL651"}, {"geometry": {"type": "Point", "coordinates": [22.7044, 37.9177]}, "type": "Feature", "properties": {"COAST_TYPE": 1, "MOUNT_TYPE": 2, "NAME_LATN": "Korinthia", "CNTR_CODE": "EL", "FID": "EL652", "NUTS_ID": "EL652", "NUTS_NAME": "\u039a\u03bf\u03c1\u03b9\u03bd\u03b8\u03af\u03b1", "LEVL_CODE": 3, "URBN_TYPE": 2}, "id": "EL652"}, {"geometry": {"type": "Point", "coordinates": [22.3124, 37.0396]}, "type": "Feature", "properties": {"COAST_TYPE": 1, "MOUNT_TYPE": 2, "NAME_LATN": "Lakonia, Messinia", "CNTR_CODE": "EL", "FID": "EL653", "NUTS_ID": "EL653", "NUTS_NAME": "\u039b\u03b1\u03ba\u03c9\u03bd\u03af\u03b1, \u039c\u03b5\u03c3\u03c3\u03b7\u03bd\u03af\u03b1", "LEVL_CODE": 3, "URBN_TYPE": 3}, "id": "EL653"}, {"geometry": {"type": "Point", "coordinates": [-8.4781, 43.093]}, "type": "Feature", "properties": {"COAST_TYPE": 1, "MOUNT_TYPE": 2, "NAME_LATN": "A Coru\u00f1a", "CNTR_CODE": "ES", "FID": "ES111", "NUTS_ID": "ES111", "NUTS_NAME": "A Coru\u00f1a", "LEVL_CODE": 3, "URBN_TYPE": 2}, "id": "ES111"}, {"geometry": {"type": "Point", "coordinates": [-7.4452, 43.0167]}, "type": "Feature", "properties": {"COAST_TYPE": 1, "MOUNT_TYPE": 2, "NAME_LATN": "Lugo", "CNTR_CODE": "ES", "FID": "ES112", "NUTS_ID": "ES112", "NUTS_NAME": "Lugo", "LEVL_CODE": 3, "URBN_TYPE": 3}, "id": "ES112"}, {"geometry": {"type": "Point", "coordinates": [-7.5385, 42.1201]}, "type": "Feature", "properties": {"COAST_TYPE": 3, "MOUNT_TYPE": 3, "NAME_LATN": "Ourense", "CNTR_CODE": "ES", "FID": "ES113", "NUTS_ID": "ES113", "NUTS_NAME": "Ourense", "LEVL_CODE": 3, "URBN_TYPE": 3}, "id": "ES113"}, {"geometry": {"type": "Point", "coordinates": [-8.4513, 42.4335]}, "type": "Feature", "properties": {"COAST_TYPE": 1, "MOUNT_TYPE": 2, "NAME_LATN": "Pontevedra", "CNTR_CODE": "ES", "FID": "ES114", "NUTS_ID": "ES114", "NUTS_NAME": "Pontevedra", "LEVL_CODE": 3, "URBN_TYPE": 2}, "id": "ES114"}, {"geometry": {"type": "Point", "coordinates": [-5.9972, 43.3017]}, "type": "Feature", "properties": {"COAST_TYPE": 1, "MOUNT_TYPE": 2, "NAME_LATN": "Asturias", "CNTR_CODE": "ES", "FID": "ES120", "NUTS_ID": "ES120", "NUTS_NAME": "Asturias", "LEVL_CODE": 3, "URBN_TYPE": 2}, "id": "ES120"}, {"geometry": {"type": "Point", "coordinates": [-4.0606, 43.1875]}, "type": "Feature", "properties": {"COAST_TYPE": 1, "MOUNT_TYPE": 2, "NAME_LATN": "Cantabria", "CNTR_CODE": "ES", "FID": "ES130", "NUTS_ID": "ES130", "NUTS_NAME": "Cantabria", "LEVL_CODE": 3, "URBN_TYPE": 2}, "id": "ES130"}, {"geometry": {"type": "Point", "coordinates": [-2.6816, 42.8541]}, "type": "Feature", "properties": {"COAST_TYPE": 3, "MOUNT_TYPE": 3, "NAME_LATN": "Araba/\u00c1lava", "CNTR_CODE": "ES", "FID": "ES211", "NUTS_ID": "ES211", "NUTS_NAME": "Araba/\u00c1lava", "LEVL_CODE": 3, "URBN_TYPE": 1}, "id": "ES211"}, {"geometry": {"type": "Point", "coordinates": [-2.1867, 43.156]}, "type": "Feature", "properties": {"COAST_TYPE": 1, "MOUNT_TYPE": 2, "NAME_LATN": "Gipuzkoa", "CNTR_CODE": "ES", "FID": "ES212", "NUTS_ID": "ES212", "NUTS_NAME": "Gipuzkoa", "LEVL_CODE": 3, "URBN_TYPE": 1}, "id": "ES212"}, {"geometry": {"type": "Point", "coordinates": [-2.8328, 43.2576]}, "type": "Feature", "properties": {"COAST_TYPE": 1, "MOUNT_TYPE": 3, "NAME_LATN": "Bizkaia", "CNTR_CODE": "ES", "FID": "ES213", "NUTS_ID": "ES213", "NUTS_NAME": "Bizkaia", "LEVL_CODE": 3, "URBN_TYPE": 1}, "id": "ES213"}, {"geometry": {"type": "Point", "coordinates": [-1.6508, 42.7117]}, "type": "Feature", "properties": {"COAST_TYPE": 3, "MOUNT_TYPE": 3, "NAME_LATN": "Navarra", "CNTR_CODE": "ES", "FID": "ES220", "NUTS_ID": "ES220", "NUTS_NAME": "Navarra", "LEVL_CODE": 3, "URBN_TYPE": 2}, "id": "ES220"}, {"geometry": {"type": "Point", "coordinates": [-2.4332, 42.3132]}, "type": "Feature", "properties": {"COAST_TYPE": 3, "MOUNT_TYPE": 2, "NAME_LATN": "La Rioja", "CNTR_CODE": "ES", "FID": "ES230", "NUTS_ID": "ES230", "NUTS_NAME": "La Rioja", "LEVL_CODE": 3, "URBN_TYPE": 2}, "id": "ES230"}, {"geometry": {"type": "Point", "coordinates": [-0.0859, 42.2138]}, "type": "Feature", "properties": {"COAST_TYPE": 3, "MOUNT_TYPE": 2, "NAME_LATN": "Huesca", "CNTR_CODE": "ES", "FID": "ES241", "NUTS_ID": "ES241", "NUTS_NAME": "Huesca", "LEVL_CODE": 3, "URBN_TYPE": 2}, "id": "ES241"}, {"geometry": {"type": "Point", "coordinates": [-0.8345, 40.6511]}, "type": "Feature", "properties": {"COAST_TYPE": 3, "MOUNT_TYPE": 3, "NAME_LATN": "Teruel", "CNTR_CODE": "ES", "FID": "ES242", "NUTS_ID": "ES242", "NUTS_NAME": "Teruel", "LEVL_CODE": 3, "URBN_TYPE": 3}, "id": "ES242"}, {"geometry": {"type": "Point", "coordinates": [-1.055, 41.6013]}, "type": "Feature", "properties": {"COAST_TYPE": 3, "MOUNT_TYPE": 2, "NAME_LATN": "Zaragoza", "CNTR_CODE": "ES", "FID": "ES243", "NUTS_ID": "ES243", "NUTS_NAME": "Zaragoza", "LEVL_CODE": 3, "URBN_TYPE": 1}, "id": "ES243"}, {"geometry": {"type": "Point", "coordinates": [20.0708, 41.1389]}, "type": "Feature", "properties": {"COAST_TYPE": 0, "MOUNT_TYPE": 0, "NAME_LATN": "SHQIP\u00cbRIA", "CNTR_CODE": "AL", "FID": "AL", "NUTS_ID": "AL", "NUTS_NAME": "SHQIP\u00cbRIA", "LEVL_CODE": 0, "URBN_TYPE": 0}, "id": "AL"}, {"geometry": {"type": "Point", "coordinates": [14.1373, 47.5847]}, "type": "Feature", "properties": {"COAST_TYPE": 0, "MOUNT_TYPE": 0, "NAME_LATN": "\u00d6STERREICH", "CNTR_CODE": "AT", "FID": "AT", "NUTS_ID": "AT", "NUTS_NAME": "\u00d6STERREICH", "LEVL_CODE": 0, "URBN_TYPE": 0}, "id": "AT"}, {"geometry": {"type": "Point", "coordinates": [4.6593, 50.6429]}, "type": "Feature", "properties": {"COAST_TYPE": 0, "MOUNT_TYPE": 0, "NAME_LATN": "BELGIQUE-BELGI\u00cb ", "CNTR_CODE": "BE", "FID": "BE", "NUTS_ID": "BE", "NUTS_NAME": "BELGIQUE-BELGI\u00cb ", "LEVL_CODE": 0, "URBN_TYPE": 0}, "id": "BE"}, {"geometry": {"type": "Point", "coordinates": [25.235, 42.7546]}, "type": "Feature", "properties": {"COAST_TYPE": 0, "MOUNT_TYPE": 0, "NAME_LATN": "BULGARIA", "CNTR_CODE": "BG", "FID": "BG", "NUTS_ID": "BG", "NUTS_NAME": "\u0411\u042a\u041b\u0413\u0410\u0420\u0418\u042f", "LEVL_CODE": 0, "URBN_TYPE": 0}, "id": "BG"}, {"geometry": {"type": "Point", "coordinates": [8.2129, 46.9548]}, "type": "Feature", "properties": {"COAST_TYPE": 3, "MOUNT_TYPE": 0, "NAME_LATN": "SCHWEIZ/SUISSE/SVIZZERA", "CNTR_CODE": "CH", "FID": "CH", "NUTS_ID": "CH", "NUTS_NAME": "SCHWEIZ/SUISSE/SVIZZERA", "LEVL_CODE": 0, "URBN_TYPE": 0}, "id": "CH"}, {"geometry": {"type": "Point", "coordinates": [33.1739, 35.0284]}, "type": "Feature", "properties": {"COAST_TYPE": 0, "MOUNT_TYPE": 0, "NAME_LATN": "KYPROS", "CNTR_CODE": "CY", "FID": "CY", "NUTS_ID": "CY", "NUTS_NAME": "\u039a\u03a5\u03a0\u03a1\u039f\u03a3", "LEVL_CODE": 0, "URBN_TYPE": 0}, "id": "CY"}, {"geometry": {"type": "Point", "coordinates": [15.3276, 49.7382]}, "type": "Feature", "properties": {"COAST_TYPE": 0, "MOUNT_TYPE": 0, "NAME_LATN": "\u010cESK\u00c1 REPUBLIKA", "CNTR_CODE": "CZ", "FID": "CZ", "NUTS_ID": "CZ", "NUTS_NAME": "\u010cESK\u00c1 REPUBLIKA", "LEVL_CODE": 0, "URBN_TYPE": 0}, "id": "CZ"}, {"geometry": {"type": "Point", "coordinates": [10.3786, 51.0735]}, "type": "Feature", "properties": {"COAST_TYPE": 0, "MOUNT_TYPE": 0, "NAME_LATN": "DEUTSCHLAND", "CNTR_CODE": "DE", "FID": "DE", "NUTS_ID": "DE", "NUTS_NAME": "DEUTSCHLAND", "LEVL_CODE": 0, "URBN_TYPE": 0}, "id": "DE"}, {"geometry": {"type": "Point", "coordinates": [9.3193, 56.0271]}, "type": "Feature", "properties": {"COAST_TYPE": 0, "MOUNT_TYPE": 0, "NAME_LATN": "DANMARK", "CNTR_CODE": "DK", "FID": "DK", "NUTS_ID": "DK", "NUTS_NAME": "DANMARK", "LEVL_CODE": 0, "URBN_TYPE": 0}, "id": "DK"}, {"geometry": {"type": "Point", "coordinates": [25.8548, 58.6709]}, "type": "Feature", "properties": {"COAST_TYPE": 0, "MOUNT_TYPE": 0, "NAME_LATN": "EESTI", "CNTR_CODE": "EE", "FID": "EE", "NUTS_ID": "EE", "NUTS_NAME": "EESTI", "LEVL_CODE": 0, "URBN_TYPE": 0}, "id": "EE"}, {"geometry": {"type": "Point", "coordinates": [22.5402, 39.4982]}, "type": "Feature", "properties": {"COAST_TYPE": 0, "MOUNT_TYPE": 0, "NAME_LATN": "ELLADA", "CNTR_CODE": "EL", "FID": "EL", "NUTS_ID": "EL", "NUTS_NAME": "\u0395\u039b\u039b\u0391\u0394\u0391", "LEVL_CODE": 0, "URBN_TYPE": 0}, "id": "EL"}, {"geometry": {"type": "Point", "coordinates": [-3.5521, 40.3816]}, "type": "Feature", "properties": {"COAST_TYPE": 0, "MOUNT_TYPE": 0, "NAME_LATN": "ESPA\u00d1A ", "CNTR_CODE": "ES", "FID": "ES", "NUTS_ID": "ES", "NUTS_NAME": "ESPA\u00d1A ", "LEVL_CODE": 0, "URBN_TYPE": 0}, "id": "ES"}, {"geometry": {"type": "Point", "coordinates": [26.2795, 64.4974]}, "type": "Feature", "properties": {"COAST_TYPE": 0, "MOUNT_TYPE": 0, "NAME_LATN": "SUOMI / FINLAND", "CNTR_CODE": "FI", "FID": "FI", "NUTS_ID": "FI", "NUTS_NAME": "SUOMI / FINLAND", "LEVL_CODE": 0, "URBN_TYPE": 0}, "id": "FI"}, {"geometry": {"type": "Point", "coordinates": [2.5059, 46.6183]}, "type": "Feature", "properties": {"COAST_TYPE": 0, "MOUNT_TYPE": 0, "NAME_LATN": "FRANCE", "CNTR_CODE": "FR", "FID": "FR", "NUTS_ID": "FR", "NUTS_NAME": "FRANCE", "LEVL_CODE": 0, "URBN_TYPE": 0}, "id": "FR"}, {"geometry": {"type": "Point", "coordinates": [16.4894, 43.756]}, "type": "Feature", "properties": {"COAST_TYPE": 0, "MOUNT_TYPE": 0, "NAME_LATN": "HRVATSKA", "CNTR_CODE": "HR", "FID": "HR", "NUTS_ID": "HR", "NUTS_NAME": "HRVATSKA", "LEVL_CODE": 0, "URBN_TYPE": 0}, "id": "HR"}, {"geometry": {"type": "Point", "coordinates": [19.4066, 47.1616]}, "type": "Feature", "properties": {"COAST_TYPE": 0, "MOUNT_TYPE": 0, "NAME_LATN": "MAGYARORSZ\u00c1G", "CNTR_CODE": "HU", "FID": "HU", "NUTS_ID": "HU", "NUTS_NAME": "MAGYARORSZ\u00c1G", "LEVL_CODE": 0, "URBN_TYPE": 0}, "id": "HU"}, {"geometry": {"type": "Point", "coordinates": [-8.0902, 53.1794]}, "type": "Feature", "properties": {"COAST_TYPE": 0, "MOUNT_TYPE": 0, "NAME_LATN": "IRELAND", "CNTR_CODE": "IE", "FID": "IE", "NUTS_ID": "IE", "NUTS_NAME": "IRELAND", "LEVL_CODE": 0, "URBN_TYPE": 0}, "id": "IE"}, {"geometry": {"type": "Point", "coordinates": [-18.8569, 64.756]}, "type": "Feature", "properties": {"COAST_TYPE": 0, "MOUNT_TYPE": 0, "NAME_LATN": "\u00cdSLAND", "CNTR_CODE": "IS", "FID": "IS", "NUTS_ID": "IS", "NUTS_NAME": "\u00cdSLAND", "LEVL_CODE": 0, "URBN_TYPE": 0}, "id": "IS"}, {"geometry": {"type": "Point", "coordinates": [12.5322, 42.837]}, "type": "Feature", "properties": {"COAST_TYPE": 0, "MOUNT_TYPE": 0, "NAME_LATN": "ITALIA", "CNTR_CODE": "IT", "FID": "IT", "NUTS_ID": "IT", "NUTS_NAME": "ITALIA", "LEVL_CODE": 0, "URBN_TYPE": 0}, "id": "IT"}, {"geometry": {"type": "Point", "coordinates": [9.5534, 47.1383]}, "type": "Feature", "properties": {"COAST_TYPE": 0, "MOUNT_TYPE": 0, "NAME_LATN": "LIECHTENSTEIN", "CNTR_CODE": "LI", "FID": "LI", "NUTS_ID": "LI", "NUTS_NAME": "LIECHTENSTEIN", "LEVL_CODE": 0, "URBN_TYPE": 0}, "id": "LI"}, {"geometry": {"type": "Point", "coordinates": [23.9197, 55.3351]}, "type": "Feature", "properties": {"COAST_TYPE": 0, "MOUNT_TYPE": 0, "NAME_LATN": "LIETUVA", "CNTR_CODE": "LT", "FID": "LT", "NUTS_ID": "LT", "NUTS_NAME": "LIETUVA", "LEVL_CODE": 0, "URBN_TYPE": 0}, "id": "LT"}, {"geometry": {"type": "Point", "coordinates": [6.0943, 49.771]}, "type": "Feature", "properties": {"COAST_TYPE": 0, "MOUNT_TYPE": 0, "NAME_LATN": "LUXEMBOURG", "CNTR_CODE": "LU", "FID": "LU", "NUTS_ID": "LU", "NUTS_NAME": "LUXEMBOURG", "LEVL_CODE": 0, "URBN_TYPE": 0}, "id": "LU"}, {"geometry": {"type": "Point", "coordinates": [26.382, 56.6829]}, "type": "Feature", "properties": {"COAST_TYPE": 0, "MOUNT_TYPE": 0, "NAME_LATN": "LATVIJA", "CNTR_CODE": "LV", "FID": "LV", "NUTS_ID": "LV", "NUTS_NAME": "LATVIJA", "LEVL_CODE": 0, "URBN_TYPE": 0}, "id": "LV"}, {"geometry": {"type": "Point", "coordinates": [19.269, 42.7721]}, "type": "Feature", "properties": {"COAST_TYPE": 0, "MOUNT_TYPE": 0, "NAME_LATN": "CRNA GORA", "CNTR_CODE": "ME", "FID": "ME", "NUTS_ID": "ME", "NUTS_NAME": "\u0426\u0420\u041d\u0410 \u0413\u041e\u0420\u0410", "LEVL_CODE": 0, "URBN_TYPE": 0}, "id": "ME"}, {"geometry": {"type": "Point", "coordinates": [21.6966, 41.5981]}, "type": "Feature", "properties": {"COAST_TYPE": 3, "MOUNT_TYPE": 0, "NAME_LATN": "North Macedonia", "CNTR_CODE": "MK", "FID": "MK", "NUTS_ID": "MK", "NUTS_NAME": "North Macedonia", "LEVL_CODE": 0, "URBN_TYPE": 0}, "id": "MK"}, {"geometry": {"type": "Point", "coordinates": [14.4312, 35.886]}, "type": "Feature", "properties": {"COAST_TYPE": 0, "MOUNT_TYPE": 0, "NAME_LATN": "MALTA", "CNTR_CODE": "MT", "FID": "MT", "NUTS_ID": "MT", "NUTS_NAME": "MALTA", "LEVL_CODE": 0, "URBN_TYPE": 0}, "id": "MT"}, {"geometry": {"type": "Point", "coordinates": [5.646, 52.2932]}, "type": "Feature", "properties": {"COAST_TYPE": 0, "MOUNT_TYPE": 0, "NAME_LATN": "NEDERLAND", "CNTR_CODE": "NL", "FID": "NL", "NUTS_ID": "NL", "NUTS_NAME": "NEDERLAND", "LEVL_CODE": 0, "URBN_TYPE": 0}, "id": "NL"}, {"geometry": {"type": "Point", "coordinates": [11.4948, 61.7103]}, "type": "Feature", "properties": {"COAST_TYPE": 0, "MOUNT_TYPE": 0, "NAME_LATN": "NORGE", "CNTR_CODE": "NO", "FID": "NO", "NUTS_ID": "NO", "NUTS_NAME": "NORGE", "LEVL_CODE": 0, "URBN_TYPE": 0}, "id": "NO"}, {"geometry": {"type": "Point", "coordinates": [19.4066, 52.1309]}, "type": "Feature", "properties": {"COAST_TYPE": 0, "MOUNT_TYPE": 0, "NAME_LATN": "POLSKA", "CNTR_CODE": "PL", "FID": "PL", "NUTS_ID": "PL", "NUTS_NAME": "POLSKA", "LEVL_CODE": 0, "URBN_TYPE": 0}, "id": "PL"}, {"geometry": {"type": "Point", "coordinates": [-7.9703, 39.6868]}, "type": "Feature", "properties": {"COAST_TYPE": 0, "MOUNT_TYPE": 0, "NAME_LATN": "PORTUGAL", "CNTR_CODE": "PT", "FID": "PT", "NUTS_ID": "PT", "NUTS_NAME": "PORTUGAL", "LEVL_CODE": 0, "URBN_TYPE": 0}, "id": "PT"}, {"geometry": {"type": "Point", "coordinates": [24.9778, 45.8361]}, "type": "Feature", "properties": {"COAST_TYPE": 0, "MOUNT_TYPE": 0, "NAME_LATN": "ROM\u00c2NIA", "CNTR_CODE": "RO", "FID": "RO", "NUTS_ID": "RO", "NUTS_NAME": "ROM\u00c2NIA", "LEVL_CODE": 0, "URBN_TYPE": 0}, "id": "RO"}, {"geometry": {"type": "Point", "coordinates": [20.7975, 44.2355]}, "type": "Feature", "properties": {"COAST_TYPE": 3, "MOUNT_TYPE": 0, "NAME_LATN": "REPUBLIKA SRBIJA /\u0420\u0415\u041f\u0423\u0411\u041b\u0418\u041a\u0410 \u0421\u0420\u0411\u0418\u0408\u0410", "CNTR_CODE": "RS", "FID": "RS", "NUTS_ID": "RS", "NUTS_NAME": "REPUBLIKA SRBIJA /\u0420\u0415\u041f\u0423\u0411\u041b\u0418\u041a\u0410 \u0421\u0420\u0411\u0418\u0408\u0410", "LEVL_CODE": 0, "URBN_TYPE": 0}, "id": "RS"}, {"geometry": {"type": "Point", "coordinates": [14.4445, 60.6418]}, "type": "Feature", "properties": {"COAST_TYPE": 0, "MOUNT_TYPE": 0, "NAME_LATN": "SVERIGE", "CNTR_CODE": "SE", "FID": "SE", "NUTS_ID": "SE", "NUTS_NAME": "SVERIGE", "LEVL_CODE": 0, "URBN_TYPE": 0}, "id": "SE"}, {"geometry": {"type": "Point", "coordinates": [14.8169, 46.1277]}, "type": "Feature", "properties": {"COAST_TYPE": 0, "MOUNT_TYPE": 0, "NAME_LATN": "SLOVENIJA", "CNTR_CODE": "SI", "FID": "SI", "NUTS_ID": "SI", "NUTS_NAME": "SLOVENIJA", "LEVL_CODE": 0, "URBN_TYPE": 0}, "id": "SI"}, {"geometry": {"type": "Point", "coordinates": [19.4741, 48.7042]}, "type": "Feature", "properties": {"COAST_TYPE": 0, "MOUNT_TYPE": 0, "NAME_LATN": "SLOVENSKO", "CNTR_CODE": "SK", "FID": "SK", "NUTS_ID": "SK", "NUTS_NAME": "SLOVENSKO", "LEVL_CODE": 0, "URBN_TYPE": 0}, "id": "SK"}, {"geometry": {"type": "Point", "coordinates": [35.4709, 38.9923]}, "type": "Feature", "properties": {"COAST_TYPE": 0, "MOUNT_TYPE": 0, "NAME_LATN": "T\u00dcRKIYE", "CNTR_CODE": "TR", "FID": "TR", "NUTS_ID": "TR", "NUTS_NAME": "T\u00dcRKIYE", "LEVL_CODE": 0, "URBN_TYPE": 0}, "id": "TR"}, {"geometry": {"type": "Point", "coordinates": [-2.1086, 53.2786]}, "type": "Feature", "properties": {"COAST_TYPE": 0, "MOUNT_TYPE": 0, "NAME_LATN": "UNITED KINGDOM", "CNTR_CODE": "UK", "FID": "UK", "NUTS_ID": "UK", "NUTS_NAME": "UNITED KINGDOM", "LEVL_CODE": 0, "URBN_TYPE": 0}, "id": "UK"}, {"geometry": {"type": "Point", "coordinates": [20.0708, 41.1389]}, "type": "Feature", "properties": {"COAST_TYPE": 0, "MOUNT_TYPE": 0, "NAME_LATN": "SHQIP\u00cbRIA", "CNTR_CODE": "AL", "FID": "AL0", "NUTS_ID": "AL0", "NUTS_NAME": "SHQIP\u00cbRIA", "LEVL_CODE": 1, "URBN_TYPE": 0}, "id": "AL0"}, {"geometry": {"type": "Point", "coordinates": [15.8797, 48.1513]}, "type": "Feature", "properties": {"COAST_TYPE": 0, "MOUNT_TYPE": 0, "NAME_LATN": "OST\u00d6STERREICH", "CNTR_CODE": "AT", "FID": "AT1", "NUTS_ID": "AT1", "NUTS_NAME": "OST\u00d6STERREICH", "LEVL_CODE": 1, "URBN_TYPE": 0}, "id": "AT1"}, {"geometry": {"type": "Point", "coordinates": [14.6061, 47.0797]}, "type": "Feature", "properties": {"COAST_TYPE": 0, "MOUNT_TYPE": 0, "NAME_LATN": "S\u00dcD\u00d6STERREICH", "CNTR_CODE": "AT", "FID": "AT2", "NUTS_ID": "AT2", "NUTS_NAME": "S\u00dcD\u00d6STERREICH", "LEVL_CODE": 1, "URBN_TYPE": 0}, "id": "AT2"}, {"geometry": {"type": "Point", "coordinates": [12.2455, 47.2803]}, "type": "Feature", "properties": {"COAST_TYPE": 0, "MOUNT_TYPE": 0, "NAME_LATN": "WEST\u00d6STERREICH", "CNTR_CODE": "AT", "FID": "AT3", "NUTS_ID": "AT3", "NUTS_NAME": "WEST\u00d6STERREICH", "LEVL_CODE": 1, "URBN_TYPE": 0}, "id": "AT3"}, {"geometry": {"type": "Point", "coordinates": [4.3569, 50.8401]}, "type": "Feature", "properties": {"COAST_TYPE": 0, "MOUNT_TYPE": 0, "NAME_LATN": "R\u00c9GION DE BRUXELLES-CAPITALE/BRUSSELS HOOFDSTEDELIJK GEWEST", "CNTR_CODE": "BE", "FID": "BE1", "NUTS_ID": "BE1", "NUTS_NAME": "R\u00c9GION DE BRUXELLES-CAPITALE/BRUSSELS HOOFDSTEDELIJK GEWEST", "LEVL_CODE": 1, "URBN_TYPE": 0}, "id": "BE1"}, {"geometry": {"type": "Point", "coordinates": [4.9852, 51.1013]}, "type": "Feature", "properties": {"COAST_TYPE": 0, "MOUNT_TYPE": 0, "NAME_LATN": "VLAAMS GEWEST", "CNTR_CODE": "BE", "FID": "BE2", "NUTS_ID": "BE2", "NUTS_NAME": "VLAAMS GEWEST", "LEVL_CODE": 1, "URBN_TYPE": 0}, "id": "BE2"}, {"geometry": {"type": "Point", "coordinates": [4.8252, 50.4595]}, "type": "Feature", "properties": {"COAST_TYPE": 0, "MOUNT_TYPE": 0, "NAME_LATN": "R\u00c9GION WALLONNE", "CNTR_CODE": "BE", "FID": "BE3", "NUTS_ID": "BE3", "NUTS_NAME": "R\u00c9GION WALLONNE", "LEVL_CODE": 1, "URBN_TYPE": 0}, "id": "BE3"}, {"geometry": {"type": "Point", "coordinates": [25.8853, 43.1525]}, "type": "Feature", "properties": {"COAST_TYPE": 0, "MOUNT_TYPE": 0, "NAME_LATN": "SEVERNA I YUGOIZTOCHNA BULGARIA", "CNTR_CODE": "BG", "FID": "BG3", "NUTS_ID": "BG3", "NUTS_NAME": "\u0421\u0415\u0412\u0415\u0420\u041d\u0410 \u0418 \u042e\u0413\u041e\u0418\u0417\u0422\u041e\u0427\u041d\u0410 \u0411\u042a\u041b\u0413\u0410\u0420\u0418\u042f", "LEVL_CODE": 1, "URBN_TYPE": 0}, "id": "BG3"}, {"geometry": {"type": "Point", "coordinates": [24.1941, 42.1249]}, "type": "Feature", "properties": {"COAST_TYPE": 0, "MOUNT_TYPE": 0, "NAME_LATN": "YUGOZAPADNA I YUZHNA TSENTRALNA BULGARIA", "CNTR_CODE": "BG", "FID": "BG4", "NUTS_ID": "BG4", "NUTS_NAME": "\u042e\u0413\u041e\u0417\u0410\u041f\u0410\u0414\u041d\u0410 \u0418 \u042e\u0416\u041d\u0410 \u0426\u0415\u041d\u0422\u0420\u0410\u041b\u041d\u0410 \u0411\u042a\u041b\u0413\u0410\u0420\u0418\u042f", "LEVL_CODE": 1, "URBN_TYPE": 0}, "id": "BG4"}, {"geometry": {"type": "Point", "coordinates": [8.2129, 46.9548]}, "type": "Feature", "properties": {"COAST_TYPE": 0, "MOUNT_TYPE": 0, "NAME_LATN": "SCHWEIZ/SUISSE/SVIZZERA", "CNTR_CODE": "CH", "FID": "CH0", "NUTS_ID": "CH0", "NUTS_NAME": "SCHWEIZ/SUISSE/SVIZZERA", "LEVL_CODE": 1, "URBN_TYPE": 0}, "id": "CH0"}, {"geometry": {"type": "Point", "coordinates": [33.1739, 35.0284]}, "type": "Feature", "properties": {"COAST_TYPE": 0, "MOUNT_TYPE": 0, "NAME_LATN": "Kypros", "CNTR_CODE": "CY", "FID": "CY0", "NUTS_ID": "CY0", "NUTS_NAME": "\u039a\u03a5\u03a0\u03a1\u039f\u03a3", "LEVL_CODE": 1, "URBN_TYPE": 0}, "id": "CY0"}, {"geometry": {"type": "Point", "coordinates": [15.3276, 49.7382]}, "type": "Feature", "properties": {"COAST_TYPE": 0, "MOUNT_TYPE": 0, "NAME_LATN": "\u010cESK\u00c1 REPUBLIKA", "CNTR_CODE": "CZ", "FID": "CZ0", "NUTS_ID": "CZ0", "NUTS_NAME": "\u010cESK\u00c1 REPUBLIKA", "LEVL_CODE": 1, "URBN_TYPE": 0}, "id": "CZ0"}, {"geometry": {"type": "Point", "coordinates": [9.0509, 48.5342]}, "type": "Feature", "properties": {"COAST_TYPE": 0, "MOUNT_TYPE": 0, "NAME_LATN": "BADEN-W\u00dcRTTEMBERG", "CNTR_CODE": "DE", "FID": "DE1", "NUTS_ID": "DE1", "NUTS_NAME": "BADEN-W\u00dcRTTEMBERG", "LEVL_CODE": 1, "URBN_TYPE": 0}, "id": "DE1"}, {"geometry": {"type": "Point", "coordinates": [11.4213, 48.9474]}, "type": "Feature", "properties": {"COAST_TYPE": 0, "MOUNT_TYPE": 0, "NAME_LATN": "BAYERN", "CNTR_CODE": "DE", "FID": "DE2", "NUTS_ID": "DE2", "NUTS_NAME": "BAYERN", "LEVL_CODE": 1, "URBN_TYPE": 0}, "id": "DE2"}, {"geometry": {"type": "Point", "coordinates": [13.4022, 52.5005]}, "type": "Feature", "properties": {"COAST_TYPE": 0, "MOUNT_TYPE": 0, "NAME_LATN": "BERLIN", "CNTR_CODE": "DE", "FID": "DE3", "NUTS_ID": "DE3", "NUTS_NAME": "BERLIN", "LEVL_CODE": 1, "URBN_TYPE": 0}, "id": "DE3"}, {"geometry": {"type": "Point", "coordinates": [12.1381, 53.0836]}, "type": "Feature", "properties": {"COAST_TYPE": 0, "MOUNT_TYPE": 0, "NAME_LATN": "BRANDENBURG", "CNTR_CODE": "DE", "FID": "DE4", "NUTS_ID": "DE4", "NUTS_NAME": "BRANDENBURG", "LEVL_CODE": 1, "URBN_TYPE": 0}, "id": "DE4"}, {"geometry": {"type": "Point", "coordinates": [8.7877, 53.1065]}, "type": "Feature", "properties": {"COAST_TYPE": 0, "MOUNT_TYPE": 0, "NAME_LATN": "BREMEN", "CNTR_CODE": "DE", "FID": "DE5", "NUTS_ID": "DE5", "NUTS_NAME": "BREMEN", "LEVL_CODE": 1, "URBN_TYPE": 0}, "id": "DE5"}, {"geometry": {"type": "Point", "coordinates": [10.01, 53.5392]}, "type": "Feature", "properties": {"COAST_TYPE": 0, "MOUNT_TYPE": 0, "NAME_LATN": "HAMBURG", "CNTR_CODE": "DE", "FID": "DE6", "NUTS_ID": "DE6", "NUTS_NAME": "HAMBURG", "LEVL_CODE": 1, "URBN_TYPE": 0}, "id": "DE6"}, {"geometry": {"type": "Point", "coordinates": [9.0325, 50.6006]}, "type": "Feature", "properties": {"COAST_TYPE": 0, "MOUNT_TYPE": 0, "NAME_LATN": "HESSEN", "CNTR_CODE": "DE", "FID": "DE7", "NUTS_ID": "DE7", "NUTS_NAME": "HESSEN", "LEVL_CODE": 1, "URBN_TYPE": 0}, "id": "DE7"}, {"geometry": {"type": "Point", "coordinates": [12.4675, 53.7138]}, "type": "Feature", "properties": {"COAST_TYPE": 0, "MOUNT_TYPE": 0, "NAME_LATN": "MECKLENBURG-VORPOMMERN", "CNTR_CODE": "DE", "FID": "DE8", "NUTS_ID": "DE8", "NUTS_NAME": "MECKLENBURG-VORPOMMERN", "LEVL_CODE": 1, "URBN_TYPE": 0}, "id": "DE8"}, {"geometry": {"type": "Point", "coordinates": [9.1837, 52.7621]}, "type": "Feature", "properties": {"COAST_TYPE": 0, "MOUNT_TYPE": 0, "NAME_LATN": "NIEDERSACHSEN", "CNTR_CODE": "DE", "FID": "DE9", "NUTS_ID": "DE9", "NUTS_NAME": "NIEDERSACHSEN", "LEVL_CODE": 1, "URBN_TYPE": 0}, "id": "DE9"}, {"geometry": {"type": "Point", "coordinates": [7.5507, 51.4749]}, "type": "Feature", "properties": {"COAST_TYPE": 0, "MOUNT_TYPE": 0, "NAME_LATN": "NORDRHEIN-WESTFALEN", "CNTR_CODE": "DE", "FID": "DEA", "NUTS_ID": "DEA", "NUTS_NAME": "NORDRHEIN-WESTFALEN", "LEVL_CODE": 1, "URBN_TYPE": 0}, "id": "DEA"}, {"geometry": {"type": "Point", "coordinates": [7.9074, 49.5093]}, "type": "Feature", "properties": {"COAST_TYPE": 0, "MOUNT_TYPE": 0, "NAME_LATN": "RHEINLAND-PFALZ", "CNTR_CODE": "DE", "FID": "DEB", "NUTS_ID": "DEB", "NUTS_NAME": "RHEINLAND-PFALZ", "LEVL_CODE": 1, "URBN_TYPE": 0}, "id": "DEB"}, {"geometry": {"type": "Point", "coordinates": [6.957, 49.3922]}, "type": "Feature", "properties": {"COAST_TYPE": 0, "MOUNT_TYPE": 0, "NAME_LATN": "SAARLAND", "CNTR_CODE": "DE", "FID": "DEC", "NUTS_ID": "DEC", "NUTS_NAME": "SAARLAND", "LEVL_CODE": 1, "URBN_TYPE": 0}, "id": "DEC"}, {"geometry": {"type": "Point", "coordinates": [13.3332, 51.0583]}, "type": "Feature", "properties": {"COAST_TYPE": 0, "MOUNT_TYPE": 0, "NAME_LATN": "SACHSEN", "CNTR_CODE": "DE", "FID": "DED", "NUTS_ID": "DED", "NUTS_NAME": "SACHSEN", "LEVL_CODE": 1, "URBN_TYPE": 0}, "id": "DED"}, {"geometry": {"type": "Point", "coordinates": [11.6996, 52.011]}, "type": "Feature", "properties": {"COAST_TYPE": 0, "MOUNT_TYPE": 0, "NAME_LATN": "SACHSEN-ANHALT", "CNTR_CODE": "DE", "FID": "DEE", "NUTS_ID": "DEE", "NUTS_NAME": "SACHSEN-ANHALT", "LEVL_CODE": 1, "URBN_TYPE": 0}, "id": "DEE"}, {"geometry": {"type": "Point", "coordinates": [9.8212, 54.0804]}, "type": "Feature", "properties": {"COAST_TYPE": 0, "MOUNT_TYPE": 0, "NAME_LATN": "SCHLESWIG-HOLSTEIN", "CNTR_CODE": "DE", "FID": "DEF", "NUTS_ID": "DEF", "NUTS_NAME": "SCHLESWIG-HOLSTEIN", "LEVL_CODE": 1, "URBN_TYPE": 0}, "id": "DEF"}, {"geometry": {"type": "Point", "coordinates": [11.0218, 50.9044]}, "type": "Feature", "properties": {"COAST_TYPE": 0, "MOUNT_TYPE": 0, "NAME_LATN": "TH\u00dcRINGEN", "CNTR_CODE": "DE", "FID": "DEG", "NUTS_ID": "DEG", "NUTS_NAME": "TH\u00dcRINGEN", "LEVL_CODE": 1, "URBN_TYPE": 0}, "id": "DEG"}, {"geometry": {"type": "Point", "coordinates": [9.3193, 56.0271]}, "type": "Feature", "properties": {"COAST_TYPE": 0, "MOUNT_TYPE": 0, "NAME_LATN": "DANMARK", "CNTR_CODE": "DK", "FID": "DK0", "NUTS_ID": "DK0", "NUTS_NAME": "DANMARK", "LEVL_CODE": 1, "URBN_TYPE": 0}, "id": "DK0"}, {"geometry": {"type": "Point", "coordinates": [25.8548, 58.6709]}, "type": "Feature", "properties": {"COAST_TYPE": 0, "MOUNT_TYPE": 0, "NAME_LATN": "EESTI", "CNTR_CODE": "EE", "FID": "EE0", "NUTS_ID": "EE0", "NUTS_NAME": "EESTI", "LEVL_CODE": 1, "URBN_TYPE": 0}, "id": "EE0"}, {"geometry": {"type": "Point", "coordinates": [23.8114, 38.0548]}, "type": "Feature", "properties": {"COAST_TYPE": 0, "MOUNT_TYPE": 0, "NAME_LATN": "ATTIKI", "CNTR_CODE": "EL", "FID": "EL3", "NUTS_ID": "EL3", "NUTS_NAME": "ATTIK\u0397", "LEVL_CODE": 1, "URBN_TYPE": 0}, "id": "EL3"}, {"geometry": {"type": "Point", "coordinates": [24.8224, 35.2248]}, "type": "Feature", "properties": {"COAST_TYPE": 0, "MOUNT_TYPE": 0, "NAME_LATN": "NISIA AIGAIOU, KRITI", "CNTR_CODE": "EL", "FID": "EL4", "NUTS_ID": "EL4", "NUTS_NAME": "N\u0397\u03a3\u0399\u0391 \u0391\u0399\u0393\u0391\u0399\u039f\u03a5, K\u03a1\u0397\u03a4\u0397", "LEVL_CODE": 1, "URBN_TYPE": 0}, "id": "EL4"}, {"geometry": {"type": "Point", "coordinates": [23.3044, 40.7986]}, "type": "Feature", "properties": {"COAST_TYPE": 0, "MOUNT_TYPE": 0, "NAME_LATN": "VOREIA ELLADA", "CNTR_CODE": "EL", "FID": "EL5", "NUTS_ID": "EL5", "NUTS_NAME": "\u0392\u039f\u03a1\u0395\u0399\u0391 \u0395\u039b\u039b\u0391\u0394\u0391", "LEVL_CODE": 1, "URBN_TYPE": 0}, "id": "EL5"}, {"geometry": {"type": "Point", "coordinates": [22.198, 39.0501]}, "type": "Feature", "properties": {"COAST_TYPE": 0, "MOUNT_TYPE": 0, "NAME_LATN": "KENTRIKI ELLADA", "CNTR_CODE": "EL", "FID": "EL6", "NUTS_ID": "EL6", "NUTS_NAME": "\u039a\u0395\u039d\u03a4\u03a1\u0399\u039a\u0397 \u0395\u039b\u039b\u0391\u0394\u0391", "LEVL_CODE": 1, "URBN_TYPE": 0}, "id": "EL6"}, {"geometry": {"type": "Point", "coordinates": [-7.6953, 42.8192]}, "type": "Feature", "properties": {"COAST_TYPE": 0, "MOUNT_TYPE": 0, "NAME_LATN": "NOROESTE", "CNTR_CODE": "ES", "FID": "ES1", "NUTS_ID": "ES1", "NUTS_NAME": "NOROESTE", "LEVL_CODE": 1, "URBN_TYPE": 0}, "id": "ES1"}, {"geometry": {"type": "Point", "coordinates": [-1.1301, 41.8962]}, "type": "Feature", "properties": {"COAST_TYPE": 0, "MOUNT_TYPE": 0, "NAME_LATN": "NORESTE", "CNTR_CODE": "ES", "FID": "ES2", "NUTS_ID": "ES2", "NUTS_NAME": "NORESTE", "LEVL_CODE": 1, "URBN_TYPE": 0}, "id": "ES2"}, {"geometry": {"type": "Point", "coordinates": [-3.7119, 40.5008]}, "type": "Feature", "properties": {"COAST_TYPE": 0, "MOUNT_TYPE": 0, "NAME_LATN": "COMUNIDAD DE MADRID", "CNTR_CODE": "ES", "FID": "ES3", "NUTS_ID": "ES3", "NUTS_NAME": "COMUNIDAD DE MADRID", "LEVL_CODE": 1, "URBN_TYPE": 0}, "id": "ES3"}, {"geometry": {"type": "Point", "coordinates": [-5.8894, 40.5556]}, "type": "Feature", "properties": {"COAST_TYPE": 0, "MOUNT_TYPE": 0, "NAME_LATN": "CENTRO (ES)", "CNTR_CODE": "ES", "FID": "ES4", "NUTS_ID": "ES4", "NUTS_NAME": "CENTRO (ES)", "LEVL_CODE": 1, "URBN_TYPE": 0}, "id": "ES4"}, {"geometry": {"type": "Point", "coordinates": [2.0051, 41.8473]}, "type": "Feature", "properties": {"COAST_TYPE": 0, "MOUNT_TYPE": 0, "NAME_LATN": "ESTE", "CNTR_CODE": "ES", "FID": "ES5", "NUTS_ID": "ES5", "NUTS_NAME": "ESTE", "LEVL_CODE": 1, "URBN_TYPE": 0}, "id": "ES5"}, {"geometry": {"type": "Point", "coordinates": [-4.261, 37.5155]}, "type": "Feature", "properties": {"COAST_TYPE": 0, "MOUNT_TYPE": 0, "NAME_LATN": "SUR", "CNTR_CODE": "ES", "FID": "ES6", "NUTS_ID": "ES6", "NUTS_NAME": "SUR", "LEVL_CODE": 1, "URBN_TYPE": 0}, "id": "ES6"}, {"geometry": {"type": "Point", "coordinates": [-16.5646, 28.2457]}, "type": "Feature", "properties": {"COAST_TYPE": 0, "MOUNT_TYPE": 0, "NAME_LATN": "CANARIAS", "CNTR_CODE": "ES", "FID": "ES7", "NUTS_ID": "ES7", "NUTS_NAME": "CANARIAS", "LEVL_CODE": 1, "URBN_TYPE": 0}, "id": "ES7"}, {"geometry": {"type": "Point", "coordinates": [26.2795, 64.4974]}, "type": "Feature", "properties": {"COAST_TYPE": 0, "MOUNT_TYPE": 0, "NAME_LATN": "MANNER-SUOMI", "CNTR_CODE": "FI", "FID": "FI1", "NUTS_ID": "FI1", "NUTS_NAME": "MANNER-SUOMI", "LEVL_CODE": 1, "URBN_TYPE": 0}, "id": "FI1"}, {"geometry": {"type": "Point", "coordinates": [20.0931, 60.2653]}, "type": "Feature", "properties": {"COAST_TYPE": 0, "MOUNT_TYPE": 0, "NAME_LATN": "\u00c5LAND", "CNTR_CODE": "FI", "FID": "FI2", "NUTS_ID": "FI2", "NUTS_NAME": "\u00c5LAND", "LEVL_CODE": 1, "URBN_TYPE": 0}, "id": "FI2"}, {"geometry": {"type": "Point", "coordinates": [2.5234, 48.7196]}, "type": "Feature", "properties": {"COAST_TYPE": 0, "MOUNT_TYPE": 0, "NAME_LATN": "ILE-DE-FRANCE", "CNTR_CODE": "FR", "FID": "FR1", "NUTS_ID": "FR1", "NUTS_NAME": "ILE-DE-FRANCE", "LEVL_CODE": 1, "URBN_TYPE": 0}, "id": "FR1"}, {"geometry": {"type": "Point", "coordinates": [1.6776, 47.4811]}, "type": "Feature", "properties": {"COAST_TYPE": 0, "MOUNT_TYPE": 0, "NAME_LATN": "CENTRE - VAL DE LOIRE", "CNTR_CODE": "FR", "FID": "FRB", "NUTS_ID": "FRB", "NUTS_NAME": "CENTRE - VAL DE LOIRE", "LEVL_CODE": 1, "URBN_TYPE": 0}, "id": "FRB"}, {"geometry": {"type": "Point", "coordinates": [4.8083, 47.2297]}, "type": "Feature", "properties": {"COAST_TYPE": 0, "MOUNT_TYPE": 0, "NAME_LATN": "BOURGOGNE-FRANCHE-COMT\u00c9", "CNTR_CODE": "FR", "FID": "FRC", "NUTS_ID": "FRC", "NUTS_NAME": "BOURGOGNE-FRANCHE-COMT\u00c9", "LEVL_CODE": 1, "URBN_TYPE": 0}, "id": "FRC"}, {"geometry": {"type": "Point", "coordinates": [0.0112, 48.8652]}, "type": "Feature", "properties": {"COAST_TYPE": 0, "MOUNT_TYPE": 0, "NAME_LATN": "NORMANDIE", "CNTR_CODE": "FR", "FID": "FRD", "NUTS_ID": "FRD", "NUTS_NAME": "NORMANDIE", "LEVL_CODE": 1, "URBN_TYPE": 0}, "id": "FRD"}, {"geometry": {"type": "Point", "coordinates": [2.7686, 49.9703]}, "type": "Feature", "properties": {"COAST_TYPE": 0, "MOUNT_TYPE": 0, "NAME_LATN": "NORD-PAS DE CALAIS-PICARDIE", "CNTR_CODE": "FR", "FID": "FRE", "NUTS_ID": "FRE", "NUTS_NAME": "NORD-PAS DE CALAIS-PICARDIE", "LEVL_CODE": 1, "URBN_TYPE": 0}, "id": "FRE"}, {"geometry": {"type": "Point", "coordinates": [5.6267, 48.6914]}, "type": "Feature", "properties": {"COAST_TYPE": 0, "MOUNT_TYPE": 0, "NAME_LATN": "ALSACE-CHAMPAGNE-ARDENNE-LORRAINE", "CNTR_CODE": "FR", "FID": "FRF", "NUTS_ID": "FRF", "NUTS_NAME": "ALSACE-CHAMPAGNE-ARDENNE-LORRAINE", "LEVL_CODE": 1, "URBN_TYPE": 0}, "id": "FRF"}, {"geometry": {"type": "Point", "coordinates": [-0.7959, 47.4936]}, "type": "Feature", "properties": {"COAST_TYPE": 0, "MOUNT_TYPE": 0, "NAME_LATN": "PAYS DE LA LOIRE", "CNTR_CODE": "FR", "FID": "FRG", "NUTS_ID": "FRG", "NUTS_NAME": "PAYS DE LA LOIRE", "LEVL_CODE": 1, "URBN_TYPE": 0}, "id": "FRG"}, {"geometry": {"type": "Point", "coordinates": [-2.7883, 48.1657]}, "type": "Feature", "properties": {"COAST_TYPE": 0, "MOUNT_TYPE": 0, "NAME_LATN": "BRETAGNE", "CNTR_CODE": "FR", "FID": "FRH", "NUTS_ID": "FRH", "NUTS_NAME": "BRETAGNE", "LEVL_CODE": 1, "URBN_TYPE": 0}, "id": "FRH"}, {"geometry": {"type": "Point", "coordinates": [0.3897, 45.4822]}, "type": "Feature", "properties": {"COAST_TYPE": 0, "MOUNT_TYPE": 0, "NAME_LATN": "AQUITAINE-LIMOUSIN-POITOU-CHARENTES", "CNTR_CODE": "FR", "FID": "FRI", "NUTS_ID": "FRI", "NUTS_NAME": "AQUITAINE-LIMOUSIN-POITOU-CHARENTES", "LEVL_CODE": 1, "URBN_TYPE": 0}, "id": "FRI"}, {"geometry": {"type": "Point", "coordinates": [2.1442, 43.707]}, "type": "Feature", "properties": {"COAST_TYPE": 0, "MOUNT_TYPE": 0, "NAME_LATN": "LANGUEDOC-ROUSSILLON-MIDI-PYR\u00c9N\u00c9ES", "CNTR_CODE": "FR", "FID": "FRJ", "NUTS_ID": "FRJ", "NUTS_NAME": "LANGUEDOC-ROUSSILLON-MIDI-PYR\u00c9N\u00c9ES", "LEVL_CODE": 1, "URBN_TYPE": 0}, "id": "FRJ"}, {"geometry": {"type": "Point", "coordinates": [4.5927, 45.2815]}, "type": "Feature", "properties": {"COAST_TYPE": 0, "MOUNT_TYPE": 0, "NAME_LATN": "AUVERGNE-RH\u00d4NE-ALPES", "CNTR_CODE": "FR", "FID": "FRK", "NUTS_ID": "FRK", "NUTS_NAME": "AUVERGNE-RH\u00d4NE-ALPES", "LEVL_CODE": 1, "URBN_TYPE": 0}, "id": "FRK"}, {"geometry": {"type": "Point", "coordinates": [6.0641, 43.9629]}, "type": "Feature", "properties": {"COAST_TYPE": 0, "MOUNT_TYPE": 0, "NAME_LATN": "PROVENCE-ALPES-C\u00d4TE D\u2019AZUR", "CNTR_CODE": "FR", "FID": "FRL", "NUTS_ID": "FRL", "NUTS_NAME": "PROVENCE-ALPES-C\u00d4TE D\u2019AZUR", "LEVL_CODE": 1, "URBN_TYPE": 0}, "id": "FRL"}, {"geometry": {"type": "Point", "coordinates": [9.0976, 42.1267]}, "type": "Feature", "properties": {"COAST_TYPE": 0, "MOUNT_TYPE": 0, "NAME_LATN": "CORSE", "CNTR_CODE": "FR", "FID": "FRM", "NUTS_ID": "FRM", "NUTS_NAME": "CORSE", "LEVL_CODE": 1, "URBN_TYPE": 0}, "id": "FRM"}, {"geometry": {"type": "Point", "coordinates": [-53.2263, 3.9221]}, "type": "Feature", "properties": {"COAST_TYPE": 0, "MOUNT_TYPE": 0, "NAME_LATN": "RUP FR - R\u00c9GIONS ULTRAP\u00c9RIPH\u00c9RIQUES FRAN\u00c7AISES", "CNTR_CODE": "FR", "FID": "FRY", "NUTS_ID": "FRY", "NUTS_NAME": "RUP FR - R\u00c9GIONS ULTRAP\u00c9RIPH\u00c9RIQUES FRAN\u00c7AISES", "LEVL_CODE": 1, "URBN_TYPE": 0}, "id": "FRY"}, {"geometry": {"type": "Point", "coordinates": [16.4894, 43.756]}, "type": "Feature", "properties": {"COAST_TYPE": 0, "MOUNT_TYPE": 0, "NAME_LATN": "HRVATSKA", "CNTR_CODE": "HR", "FID": "HR0", "NUTS_ID": "HR0", "NUTS_NAME": "HRVATSKA", "LEVL_CODE": 1, "URBN_TYPE": 0}, "id": "HR0"}, {"geometry": {"type": "Point", "coordinates": [19.3111, 47.4258]}, "type": "Feature", "properties": {"COAST_TYPE": 0, "MOUNT_TYPE": 0, "NAME_LATN": "K\u00d6Z\u00c9P-MAGYARORSZ\u00c1G", "CNTR_CODE": "HU", "FID": "HU1", "NUTS_ID": "HU1", "NUTS_NAME": "K\u00d6Z\u00c9P-MAGYARORSZ\u00c1G", "LEVL_CODE": 1, "URBN_TYPE": 0}, "id": "HU1"}, {"geometry": {"type": "Point", "coordinates": [17.7321, 46.8766]}, "type": "Feature", "properties": {"COAST_TYPE": 0, "MOUNT_TYPE": 0, "NAME_LATN": "DUN\u00c1NT\u00daL", "CNTR_CODE": "HU", "FID": "HU2", "NUTS_ID": "HU2", "NUTS_NAME": "DUN\u00c1NT\u00daL", "LEVL_CODE": 1, "URBN_TYPE": 0}, "id": "HU2"}, {"geometry": {"type": "Point", "coordinates": [20.8493, 47.3933]}, "type": "Feature", "properties": {"COAST_TYPE": 0, "MOUNT_TYPE": 0, "NAME_LATN": "ALF\u00d6LD \u00c9S \u00c9SZAK", "CNTR_CODE": "HU", "FID": "HU3", "NUTS_ID": "HU3", "NUTS_NAME": "ALF\u00d6LD \u00c9S \u00c9SZAK", "LEVL_CODE": 1, "URBN_TYPE": 0},